Location,Lat,Lon,LocationURL,State
12 Mile Break,-29.04432,114.7389,WA ,
14 Mile Crossing,-27.77597,114.7906,WA ,
20 Mile Hollow,-33.7318,150.4846,NSW ,
2nd Lookout,-34.2985,150.9179,NSW ,
3 Mile Flat,-31.79738,116.3845,WA ,
3 Miles,-35.4652,144.6512,NSW ,
399 Mile Landing,-35.7318,144.2846,NSW ,
40 Mile Crossing,-27.5293,115.0236,WA ,
7 Mile Bend,-23.38396,117.1969,WA ,
7 Mile Station,-28.41542,114.5848,WA ,
9 Mile,-15.53468,128.1899,WA ,
A H Smiths Corner,-31.36132,138.40826,SA ,
A1 MINE SETTLEMENT,-37.4998611,146.20125,VIC ,
ABBEYARD,-37.025352,146.7524021,VIC ,
ABBEYWOOD,-26.10388947,151.6455536,QLD ,
ABBOTSFORD,-24.83222389,152.004715,QLD ,
ABBOTSFORD,-37.8025182,144.9987055,VIC ,
ABBOTTVILLE,-21.1,148.7333333,QLD ,
ABERCORN,-25.1331389,151.1294147,QLD ,
ABERCORN,-25.14138794,151.1483307,QLD ,
ABERDEEN,-32.168995,150.891248,GA ,
ABERFELDIE,-37.7598697,144.8979276,VIC ,
ABERFELDY,-37.702079,146.3783433,VIC ,
ABERGOWRIE,-18.43845749,145.9194489,QLD ,
ABERGOWRIE,-18.47568096,145.886107,QLD ,
ABINGDON DOWNS,-17.81292017,143.4700215,QLD ,
ABINGTON,-25.20528,152.34694,QLD ,
ABSWOLD,-18.86666667,146.2166667,QLD ,
ACACIA RIDGE,-27.585835,153.026108,QLD ,
ACHERON,-37.270525,145.7040751,VIC ,
ACLAND,-27.30480385,151.6902466,QLD ,
ACLAND,-27.31389,151.68389,QLD ,
ACTON PARK,-42.85873,147.4754,GA ,
ADA,-37.8407326,145.8495942,VIC ,
ADAMINABY,-35.9951445,148.773891,GA ,
ADAMS ESTATE,-38.4251697,145.531635,VIC ,
ADARE,-27.50972176,152.2961121,QLD ,
ADARE,-38.5979167,146.4018056,VIC ,
ADAVALE,-25.80845451,144.7800598,QLD ,
ADAVALE,-25.91095656,144.6006217,QLD ,
ADDINGTON,-37.3937015,143.6666169,VIC ,
ADELAIDE GATE,-28.99820141,142.6029002,QLD ,
ADELAIDE LEAD,-37.0852215,143.666611,VIC ,
ADELAIDE PARK,-23.098057,150.695007,QLD ,
ADELAIDE RIVER,-13.23943,131.10733,GA ,
ADELAIDE,-34.92866,138.59863,GA ,
ADELONG,-35.3088355,148.0661425,GA ,
ADVANCETOWN,-28.07194,153.27917,QLD ,
AEROGLEN,-16.87611198,145.7597198,QLD ,
AGNES BANKS,-33.60944,150.71674,GA ,
AGNES WATER,-24.2123845,151.903349,GA ,
AGNES WATER,-24.2125857,151.9032788,QLD ,
AGNES WATER,-24.223612,151.895828,QLD ,
AGNES,-38.6848129,146.3886557,VIC ,
AILSA,-36.3326389,142.3606944,VIC ,
AIRDMILLAN,-19.52305603,147.4752655,QLD ,
AIRE VALLEY,-38.6931688,143.564482,VIC ,
AIREYS INLET (BOTTOM SHOPS) NEIGHBOURHOOD SAFER PLACE,-38.4652778,144.0988889,VIC ,
AIREYS INLET,-38.437914,144.0974471,VIC ,
AIREYS INLET,-38.464,144.10394,GA ,
AIRLIE BEACH,-20.26666641,148.715271,QLD ,
AIRLIE BEACH,-20.267707,148.7158945,GA ,
AIRLIE BEACH,-20.27444,148.715,QLD ,
AIRLY,-38.029127,147.0994153,VIC ,
AIRPORT WEST,-37.7232159,144.884188,VIC ,
AIRVILLE,-19.63222313,147.3452759,QLD ,
AITKENVALE,-19.30555534,146.7677765,QLD ,
ALABAMA HILL,-20.08333397,146.2477875,QLD ,
ALADDIN,-26.31666667,142.85,QLD ,
ALAMEIN,-37.8665278,145.0934722,VIC ,
ALBACUTYA,-35.7372797,141.9593417,VIC ,
ALBANVALE,-37.7459283,144.7682344,VIC ,
ALBANY CREEK,-27.35361099,152.9683228,QLD ,
ALBANY,-35.0031,117.86595,GA ,
ALBERT PARK,-37.8430815,144.954133,VIC ,
ALBERTA,-24.26174887,149.7655419,QLD ,
ALBERTON WEST,-38.6043737,146.583875,VIC ,
ALBERTON,-27.70694,153.26889,QLD ,
ALBERTON,-38.6132008,146.6666645,VIC ,
ALBINIA,-24.445,148.3925,QLD ,
ALBION (BRISBANE CITY),-27.43361092,153.0441742,QLD ,
ALBION (RICHMOND SHIRE),-21.337223,142.625275,QLD ,
ALBION,-37.7757465,144.8167285,VIC ,
ALBURY,-36.0806985,146.9156455,GA ,
ALDERBURY,-15.43333333,144.9333333,QLD ,
ALDERLEY,-27.42666626,152.9997253,QLD ,
ALDERSHOT,-25.4625,152.66111,QLD ,
ALDERSHOT,-25.46257806,152.6610417,QLD ,
ALDERSHOT,-25.464238,152.661376,GA ,
ALDOGA,-23.842501,151.058609,QLD ,
ALEXANDRA (LECKIE PARK) NEIGHBOURHOOD SAFER PLACE,-37.1870159,145.7149329,VIC ,
ALEXANDRA HEADLAND,-26.67333,153.10111,QLD ,
ALEXANDRA HILLS,-27.53333,153.22556,QLD ,
ALEXANDRA,-21.158054,149.090271,QLD ,
ALEXANDRA,-37.19131,145.71106,GA ,
ALEXANDRA,-37.1965757,145.7417406,VIC ,
ALFREDTON,-37.5549485,143.8008575,VIC ,
ALGESTER,-27.6125,153.03361,QLD ,
ALHAMBRA,-37.60875,146.2048611,VIC ,
ALI CURUNG,-21.00489,134.40596,GA ,
ALICE CREEK,-26.76222229,151.6066742,QLD ,
ALICE RIVER,-19.317524,146.601015,GA ,
ALICE RIVER,-19.34861183,146.6183319,QLD ,
ALICE SPRINGS,-23.69748,133.88362,GA ,
ALICE,-23.56622963,145.7983702,QLD ,
ALICKER,-26.16666667,148.5,QLD ,
ALKINA,-24.03333333,151.3333333,QLD ,
ALLAMBEE EAST,-38.3348611,146.14875,VIC ,
ALLAMBEE RESERVE,-38.3009358,146.0419775,VIC ,
ALLAMBEE RESERVE,-38.3258322,146.0650228,VIC ,
ALLAMBEE SOUTH,-38.3478969,146.1184928,VIC ,
ALLAMBEE SOUTH,-38.3506836,146.0985041,VIC ,
ALLAMBEE,-38.2739715,146.0253531,VIC ,
ALLAN,-28.19722176,151.9502716,QLD ,
ALLANDALE,-28.00611115,152.7641602,QLD ,
ALLANS FLAT,-36.2973099,146.9378343,VIC ,
ALLANS FOREST,-38.3943056,142.6273611,VIC ,
ALLANSFORD,-38.3795852,142.647279,VIC ,
ALLANSFORD,-38.38639,142.59431,GA ,
ALLANSFORD,-38.4073145,142.5840011,VIC ,
ALLANSON,-33.33588,116.0994,GA ,
ALLANTON,-16.243193,145.311661,QLD ,
ALLENDALE EAST,-38.003563,140.7090565,GA ,
ALLENDALE,-37.3631475,143.913142,VIC ,
ALLENSTOWN,-23.396667,150.504166,QLD ,
ALLENVALE,-38.5476389,143.9595833,VIC ,
ALLENVIEW,-27.911943,152.916672,QLD ,
ALLESTREE,-38.2738208,141.6519011,VIC ,
ALLIES CREEK,-26.06666667,151.1,QLD ,
ALLIGATOR CREEK (MACKAY CITY),-21.314722,149.210556,QLD ,
ALLIGATOR CREEK (TOWNSVILLE CITY),-19.42416573,146.9458313,QLD ,
ALLIGATOR CREEK,-19.424926,146.9471025,GA ,
ALLINGHAM (FORREST BEACH),-18.707373,146.2945935,GA ,
ALLINGHAM,-18.708334,146.295288,QLD ,
ALLORA,-28.01889,151.97306,QLD ,
ALLORA,-28.035269,151.9803505,GA ,
ALLORA,-28.035632,151.9802455,QLD ,
ALLOWAY,-24.95333481,152.3636169,QLD ,
ALMA BAY,-19.148453,146.867767,QLD ,
ALMA,-37.0233977,143.6782435,VIC ,
ALMADEN,-17.34069136,144.67696,QLD ,
ALMADEN,-17.41194344,144.6697235,QLD ,
ALMONDS,-36.2322816,146.0562155,VIC ,
ALMURTA EAST,-38.4640278,145.6131944,VIC ,
ALMURTA,-38.4590358,145.5846616,VIC ,
ALOA,-10.88489144,142.3511282,QLD ,
ALOOMBA,-17.11013226,145.8322181,QLD ,
ALOOMBA,-17.13944435,145.8650055,QLD ,
ALPHA,-23.638332,146.630829,QLD ,
ALPHA,-23.64915,146.63984,GA ,
ALPHA,-23.65205401,146.638355,QLD ,
ALPHINGTON,-37.7759976,145.0300135,VIC ,
ALPHINGTON,-37.784836,145.032333,VIC ,
ALPURRURULAM,-20.98552,137.84913,GA ,
ALSACE,-23.28917,149.27472,QLD ,
ALSTONVILLE,-28.84186,153.44021,GA ,
ALTON DOWNS,-23.315832,150.364456,QLD ,
ALTON,-27.98222,149.30944,QLD ,
ALTONA EAST,-37.83625,144.86125,VIC ,
ALTONA GATE,-37.8279167,144.8434722,VIC ,
ALTONA MEADOWS,-37.8795486,144.7810365,VIC ,
ALTONA NORTH,-37.838341,144.8261175,VIC ,
ALTONA,-37.8632567,144.8227203,VIC ,
ALVA,-19.44527626,147.4438934,QLD ,
ALVA,-19.45567131,147.4810944,QLD ,
ALVA,-19.457347,147.482022,GA ,
ALVIE,-38.2347299,143.4994256,VIC ,
ALVIE,-38.2603802,143.4714898,VIC ,
ALYANGULA,-13.85413,136.42129,GA ,
AMAMOOR CREEK,-26.38611031,152.5069427,QLD ,
AMAMOOR LOOKOUT,-26.345592,152.634889,QLD ,
AMAMOOR,-26.345278,152.675003,QLD ,
AMAMOOR,-26.35555649,152.672226,QLD ,
AMAROO (BOULIA SHIRE),-23.229723,139.380829,QLD ,
AMAROO (DIAMANTINA SHIRE),-23.595835,139.113342,QLD ,
AMATA (MUSGRAVE PARK),-26.15346,131.14454,GA ,
AMBER,-17.67111015,144.2436218,QLD ,
AMBERLEY,-27.630278,152.699448,QLD ,
AMBROSE,-23.78314216,150.9263499,QLD ,
AMBROSE,-23.815832,150.889999,QLD ,
AMBY,-26.54722,148.18667,QLD ,
AMBY,-26.54787924,148.1872441,QLD ,
AMERICAN RIVER,-35.77332,137.78056,GA ,
AMHERST,-37.1342775,143.6572409,VIC ,
AMIENS,-28.59861183,151.816391,QLD ,
AMITY POINT,-27.39871,153.438472,GA ,
AMITY,-27.395277,153.441116,QLD ,
AMITY,-27.39916611,153.4497223,QLD ,
AMOONGUNA,-23.77094,133.93652,GA ,
AMOR,-37.9400065,146.4015325,VIC ,
AMOS,-23.73333333,150.85,QLD ,
AMPHITHEATRE,-37.1899742,143.4145904,VIC ,
AMPILATWATJA,-21.65702,135.2259,GA ,
ANAKIE EAST,-37.95125,144.3151389,VIC ,
ANAKIE JUNCTION,-37.8798611,144.2620833,VIC ,
ANAKIE,-23.55121469,147.7475118,QLD ,
ANAKIE,-37.891371,144.2127161,VIC ,
ANAKIE,-37.9346742,144.292634,VIC ,
ANCONA,-36.9668824,145.8029595,VIC ,
ANDAMOOKA,-30.44972,137.16365,GA ,
ANDERGROVE,-21.093056,149.185562,QLD ,
ANDERLEIGH,-26.012501,152.679443,QLD ,
ANDERSON CORNER,-37.4570833,144.2945833,VIC ,
ANDERSON,-38.5233281,145.448265,VIC ,
ANDOOM,-12.53333333,141.8166667,QLD ,
ANDROMACHE,-20.59583,148.40972,QLD ,
ANDURAMBA,-27.07,152.11917,QLD ,
ANGASTON,-34.50129,139.04625,GA ,
ANGIP,-36.1051389,142.23125,VIC ,
ANGLE VALE,-34.64098,138.64611,GA ,
ANGLERS PARADISE,-27.923332,153.39888,QLD ,
ANGLERS REST,-37.018846,147.4706612,VIC ,
ANGLESEA (RIVER BANK) NEIGHBOURHOOD SAFER PLACE,-38.4099697,144.1868517,VIC ,
ANGLESEA (SHOPPING STRIP) NEIGHBOURHOOD SAFER PLACE,-38.4048075,144.1900598,VIC ,
ANGLESEA,-38.3793703,144.1607021,VIC ,
ANGLESEA,-38.4073,144.18587,GA ,
ANGURUGU,-13.9796,136.4619,GA ,
ANGUSTOWN,-36.7004167,145.0981944,VIC ,
ANGUSVALE,-37.5920833,147.3523611,VIC ,
ANNA BAY,-32.777379,152.086102,GA ,
ANNANDALE,-19.31110954,146.7858429,QLD ,
ANNERLEY,-27.512222,153.033051,QLD ,
ANNUELLO,-34.8594787,142.801171,VIC ,
ANSTEAD,-27.541111,152.862228,QLD ,
ANSTEY,-37.7623611,144.9565278,VIC ,
ANTHONY,-27.88055611,152.6883392,QLD ,
ANTIGUA,-25.630278,152.593613,QLD ,
ANTWERP,-36.272139,141.974612,VIC ,
ANYARRO,-25.08333333,151.1166667,QLD ,
ANZAC SQUARE,-37.7943056,145.28125,VIC ,
APOLLO BAY,-38.7363231,143.6460479,VIC ,
APOLLO BAY,-38.7594,143.67219,GA ,
APPIN SOUTH,-35.9161623,143.8865641,VIC ,
APPIN SOUTH,-35.9457093,143.850482,VIC ,
APPIN,-34.20347,150.78644,GA ,
APPIN,-35.878433,143.872781,VIC ,
APPLE TREE CREEK,-25.2165195,152.236616,GA ,
APPLE TREE CREEK,-25.22452652,152.2382861,QLD ,
APPLE TREE CREEK,-25.23028,152.22611,QLD ,
APPLE VALE,-28.81666667,151.8,QLD ,
APPLETHORPE,-28.61611176,151.9363861,QLD ,
APPLETHORPE,-28.61757623,151.9552591,QLD ,
APSLEY (RECREATION RESERVE SOUTH WEST QUARTER OF OVAL ONLY) NEIGHBOURHOOD SAFER PLACE,-36.9652778,141.0836111,VIC ,
APSLEY,-36.9789932,141.0912903,VIC ,
APUNYAL,-27.06666667,151.1,QLD ,
ARALUEN,-26.15694,152.65556,QLD ,
ARAMAC,-22.967821,145.2432335,GA ,
ARAMAC,-22.97206523,145.2430914,QLD ,
ARAMAC,-22.985277,145.229996,QLD ,
ARAMARA NORTH,-25.55,152.3166667,QLD ,
ARAMARA,-25.601112,152.335831,QLD ,
ARAMARA,-25.61146923,152.321342,QLD ,
ARANA HILLS,-27.39333344,152.9547119,QLD ,
ARANBANGA,-25.81916809,151.6511078,QLD ,
ARAPILES,-36.7402031,141.8427035,VIC ,
ARARAT (TOWN HALL CARPARK SURROUNDS) NEIGHBOURHOOD SAFER PLACE,-37.2835244,142.9321762,VIC ,
ARARAT,-37.2658786,142.9797323,VIC ,
ARARAT,-37.28542,142.92728,GA ,
ARATULA,-27.981385,152.548613,GA ,
ARATULA,-27.98146103,152.5485796,QLD ,
ARATULA,-27.984167,152.540848,QLD ,
ARAUCARIA LOOKOUT,-28.23833,153.219979,QLD ,
ARAWATA,-38.3903869,145.8773804,VIC ,
ARAWOOLUM,-27.640556,153.422226,QLD ,
ARBOUIN,-17.08416748,143.9808197,QLD ,
ARBUCKLE JUNCTION,-37.4229167,146.78625,VIC ,
ARBUCKLE,-37.369594,146.8322775,VIC ,
ARCADIA BAY,-19.147754,146.867997,GA ,
ARCADIA DOWNS,-36.440582,145.354369,GA ,
ARCADIA SOUTH,-36.5948031,145.3751061,VIC ,
ARCADIA VALLEY,-25.015278,148.795563,QLD ,
ARCADIA,-19.14611,146.86083,QLD ,
ARCADIA,-36.5349343,145.3619723,VIC ,
ARCHDALE JUNCTION,-36.8710445,143.4827253,VIC ,
ARCHDALE JUNCTION,-36.8932598,143.5289675,VIC ,
ARCHDALE,-36.8370701,143.4888825,VIC ,
ARCHDALE,-36.8395198,143.5273654,VIC ,
ARCHER RIVER,-13.352778,142.606674,QLD ,
ARCHERFIELD,-27.57111168,153.007782,QLD ,
ARCHERTON,-36.8694201,146.2060957,VIC ,
ARCHERTON,-36.898272,146.2639523,VIC ,
ARCHIE POCKET,-17.31666667,145.5166667,QLD ,
ARCHIES CREEK,-38.548841,145.5660435,VIC ,
ARCHOOKOORA,-26.73333333,151.8,QLD ,
ARCTURUS,-23.97722,148.32167,QLD ,
ARDEER SOUTH,-37.7901389,144.80375,VIC ,
ARDEER,-37.7756825,144.8033585,VIC ,
ARDLETHAN,-34.35734,146.90093,GA ,
ARDMONA,-36.3793835,145.2983005,VIC ,
ARDNO,-37.7593056,141.0148611,VIC ,
ARDONACHIE,-38.0618056,141.95875,VIC ,
ARDROSSAN,-34.42217,137.91906,GA ,
AREEGRA,-36.2365655,142.6873068,VIC ,
AREYONGA,-24.0736085,132.269591,GA ,
ARGENTINE,-19.43178796,146.2427811,QLD ,
ARGOON,-24.21702729,150.4457965,QLD ,
ARGYLE,-36.9669333,144.7170019,VIC ,
ARGYLL,-23.31722,147.52083,QLD ,
ARIAH PARK,-34.3481055,147.2212225,GA ,
ARINGA,-38.3556944,142.1515278,VIC ,
ARKONA,-36.3604167,142.02125,VIC ,
ARMADALE,-37.8576848,145.0194345,VIC ,
ARMIDALE,-30.514166,151.6689865,GA ,
ARMSTRONG BEACH,-21.439722,149.241669,QLD ,
ARMSTRONG BEACH,-21.45260048,149.2905283,QLD ,
ARMSTRONG BEACH,-21.4548925,149.2904055,GA ,
ARMSTRONG CREEK,-27.21777916,152.7930603,QLD ,
ARMSTRONG CREEK,-27.219632,152.833045,QLD ,
ARMSTRONG CREEK,-38.2508333,144.4038889,VIC ,
ARMSTRONG,-37.2134279,142.8832982,VIC ,
ARMYTAGE,-38.2665278,143.8781944,VIC ,
ARNO BAY,-33.91223,136.56918,GA ,
ARNOLD WEST,-36.6692165,143.7875481,VIC ,
ARNOLD,-36.6721068,143.8573728,VIC ,
AROONA,-26.78305435,153.1169434,QLD ,
ARRAWARRA,-30.06053,153.19997,GA ,
ARRIGA,-17.08056,145.31611,QLD ,
ARRILALAH,-23.66666667,143.8666667,QLD ,
ARROW TREE CORNER,-37.3931944,147.1865278,VIC ,
ARTHURS CREEK,-37.5670533,145.2068975,VIC ,
ARTHURS SEAT,-38.35406,144.95628,GA ,
ARTHURS SEAT,-38.3617141,144.96049,VIC ,
ARUNDEL,-27.93861008,153.3638916,QLD ,
ASCOT (BRISBANE CITY),-27.42972183,153.0638886,QLD ,
ASCOT (TOOWOOMBA REGIONAL),-27.81528,152.00111,QLD ,
ASCOT VALE WEST,-37.7759722,144.9051389,VIC ,
ASCOT VALE,-37.776818,144.9147716,VIC ,
ASCOT,-36.711109,144.332462,VIC ,
ASCOT,-37.397826,143.8105875,VIC ,
ASHBOURNE,-37.4115433,144.4588367,VIC ,
ASHBURTON,-37.8676695,145.0801825,VIC ,
ASHENS,-36.6843056,142.5223611,VIC ,
ASHFIELD,-24.87194443,152.3983307,QLD ,
ASHFORD,-29.321785,151.093004,GA ,
ASHGROVE,-27.441666,152.983337,QLD ,
ASHLEY,-29.316286,149.806729,GA ,
ASHMORE,-27.98916626,153.3786163,QLD ,
ASHWELL,-27.625,152.555832,QLD ,
ASHWOOD,-37.8654202,145.1024096,VIC ,
ASMUS,-15.45958202,145.1899912,QLD ,
ASPENDALE GARDENS,-38.0228555,145.1189669,VIC ,
ASPENDALE,-38.0220352,145.1013864,VIC ,
ASPLEY,-27.363611,153.019165,QLD ,
ATHERTON,-17.26596586,145.4780515,QLD ,
ATHERTON,-17.268326,145.474614,GA ,
ATHERTON,-17.27166557,145.4797211,QLD ,
ATHLONE,-38.2434548,145.7857133,VIC ,
ATHOL,-27.61944,151.77028,QLD ,
ATKINSONS DAM,-27.43194389,152.4511108,QLD ,
ATTUNGA,-30.929351,150.8416555,GA ,
ATTWOOD,-37.6671457,144.8828745,VIC ,
AUBIGNY,-27.50944,151.66583,QLD ,
AUBIGNY,-27.52313508,151.6463688,QLD ,
AUBINVILLE,-25.51666667,152.7166667,QLD ,
AUBREY,-36.2287685,142.2191912,VIC ,
AUBURN,-25.9875,150.4975,QLD ,
AUBURN,-34.02691,138.68521,GA ,
AUBURN,-37.8251389,145.0468056,VIC ,
AUCHENFLOWER,-27.47333336,152.9938965,QLD ,
AUCHMORE,-36.4666607,144.1015355,VIC ,
AUGATHELLA,-25.79483097,146.5858691,QLD ,
AUGATHELLA,-25.795389,146.584789,GA ,
AUGATHELLA,-25.80732918,146.5842133,QLD ,
AUGUSTA,-34.31566,115.15922,GA ,
AUGUSTINE HEIGHTS,-27.66055489,152.8830566,QLD ,
AURUKUN,-13.3551195,141.729285,GA ,
AURUKUN,-13.35849888,141.7280741,QLD ,
AURUKUN,-13.60266377,141.8147443,QLD ,
AUSTINVILLE,-28.15416718,153.3099976,QLD ,
AUSTRALIND,-33.2792,115.71504,GA ,
AUTIEUL,-23.2,145.25,QLD ,
AUVERN,-28.63333333,151.1333333,QLD ,
AVALON,-38.0488783,144.448757,VIC ,
AVENEL,-36.9007265,145.233322,GA ,
AVENEL,-36.9167478,145.3089846,VIC ,
AVENEL,-36.9636871,145.2415982,VIC ,
AVENELL HEIGHTS,-24.88861084,152.3691711,QLD ,
AVOCA (HIGH STREET MEDIAN STRIP) NEIGHBOURHOOD SAFER PLACE,-37.088348,143.473946,VIC ,
AVOCA BEACH,-33.46818,151.4339,GA ,
AVOCA VALE,-26.73167,152.24278,QLD ,
AVOCA,-24.88305473,152.3080597,QLD ,
AVOCA,-37.069616,143.4729,VIC ,
AVOCA,-37.09044,143.47365,GA ,
AVON PLAINS,-36.5461055,142.9354487,VIC ,
AVONDALE HEIGHTS,-37.762958,144.864912,VIC ,
AVONDALE,-24.73924927,152.1607703,QLD ,
AVONDALE,-24.76499939,152.1469421,QLD ,
AVONDALE,-33.069717,151.463899,GA ,
AVONMORE,-36.5396461,144.5369711,VIC ,
AVONSLEIGH,-37.9108872,145.4840226,VIC ,
AWABA,-33.00821,151.55096,GA ,
AWONGA,-36.9504167,141.3540278,VIC ,
AXE CREEK,-36.8591531,144.3863959,VIC ,
AXEDALE,-36.7717585,144.527674,VIC ,
AXEDALE,-36.78724,144.50243,GA ,
AYR,-19.56805611,147.4058228,QLD ,
AYR,-19.57456122,147.4066447,QLD ,
AYR,-19.5760435,147.4051025,GA ,
AYRFORD,-38.4340272,142.8488513,VIC ,
AYRFORD,-38.4395441,142.8622441,VIC ,
AYRSHIRE DOWNS,-21.63333333,142.7666667,QLD ,
AYTON,-15.921527,145.353043,QLD ,
Aarons Pass,-32.8721,149.8096,NSW ,
Aatjatayi,-14.4722,125.1471,WA ,
Abba River,-33.6813,115.491,WA ,
Abbeville,-33.42086,138.42783,SA ,
Abbey Green,-32.6152,151.1346,NSW ,
Abbey,-33.6602,115.2596,WA ,
Abbeys,-33.7177,115.0524,WA ,
Abbotsbury,-33.8738,150.8593,NSW ,
Abbotsbury,-41.04000092,148.2799988,TAS ,
Abbotsford,-33.8488884,151.128006,AHO ,
Abbotsford,-33.8568,151.1262,NSW ,
Abbotsham,-41.20999908,146.1699982,TAS ,
Abbott Street,-16.91944504,145.7752838,AHO ,
Abbotts,-26.32425,118.3889,WA ,
Abels Bay,-43.22000122,147.0899963,TAS ,
Abercrombie Caves,-33.8985,149.3512,NSW ,
Abercrombie River,-33.9118,149.3524,NSW ,
Abercrombie,-33.3902,149.5651,NSW ,
Abercrombie,-33.9568,149.3346,NSW ,
Abercrombie,-41.93000031,147.4100037,TAS ,
Aberdare,-32.8318,151.3679,NSW ,
Aberdare,-32.843,151.3804,NSW ,
Aberdeen,-30.0068,151.0679,NSW ,
Aberdeen,-32.1652,150.9012,NSW ,
Aberdeen,-33.6722,138.92618,SA ,
Aberdeen,-41.24000168,146.3200073,TAS ,
Aberfoyle Park,-35.07065,138.60018,SA ,
Aberfoyle,-30.2568,152.0179,NSW ,
Aberfoyle,-30.2735,152.0179,NSW ,
Aberglasslyn,-32.6985,151.5346,NSW ,
Abermain,-32.7985,151.4179,NSW ,
Abermain,-32.8074,151.4275,NSW ,
Abernethy,-32.8732,151.4044,NSW ,
Abernethy,-32.8818,151.3846,NSW ,
Abington,-30.2818,151.2012,NSW ,
Abington,-30.3238,151.2365,NSW ,
Abminga,-26.13141025,134.8503301,SA ,
Acacia Creek,-28.3652,152.3179,NSW ,
Acacia Gardens,-33.7324,150.9129,NSW ,
Acacia Hills,-12.763,131.1517,NT ,
Acacia Hills,-41.27000046,146.3300018,TAS ,
Acacia Plateau,-28.3818,152.3679,NSW ,
Achill,-30.4985,152.0179,NSW ,
Ackland Gardens,-34.99116,138.57077,SA ,
Acton Park,-33.76103,115.371,WA ,
Acton Park,-42.86999893,147.4700012,TAS ,
Acton,-35.28519,149.11297,ACT ,
Acton,-41.06000137,145.8899994,TAS ,
Adaminaby,-35.9957,148.7748,NSW ,
Adaminaby,-36.0985,148.8179,NSW ,
Adams Crossing,-29.8152,152.6012,NSW ,
Adams Lookout,-30.3652,150.6346,NSW ,
Adams Lookout,-34.7985,150.0012,NSW ,
Adams Scrub,-29.6652,150.5846,NSW ,
Adams Well,-30.5985,149.5179,NSW ,
Adamstown Heights,-32.9491,151.7107,NSW ,
Adamstown,-32.93563461,151.7292786,AHO ,
Adamstown,-32.9392,151.7256,NSW ,
Adamsvale,-32.21348,117.7218,WA ,
Adamsvale,-32.28098,117.7606,WA ,
Adare Heights,-35.54017,138.63284,SA ,
Adare Park,-35.54066,138.63171,SA ,
Addington,-32.06933,116.8345,WA ,
Adelaide Airport,-34.94404,138.53099,SA ,
Adelaide East,-34.9068,138.62683,SA ,
Adelaide Gate,-28.9985,142.5512,NSW ,
Adelaide River,-13.1775,131.1697,NT ,
Adelaide River,-13.237804,131.104727,NT ,
Adelaide Street,-32.05236435,115.748642,AHO ,
Adelaide Street,-34.90502167,150.7331848,AHO ,
Adelaide West,-34.92492,138.57457,SA ,
Adelaide,-34.92869,138.60102,SA ,
Adelaide,-34.92869186,138.6010132,AHO ,
Adelargo,-33.8152,148.3012,NSW ,
Adelong Crossing,-35.1318,148.0012,NSW ,
Adelong Station,-35.2985,148.0679,NSW ,
Adelong,-35.2985,148.0512,NSW ,
Adelong,-35.3049,148.069,NSW ,
Adit Camp,-36.3652,148.3846,NSW ,
Adjungbilly,-35.0818,148.4012,NSW ,
Adventure Bay,-43.34999847,147.3200073,TAS ,
Adventure Bay,-43.36024094,147.3214264,AHO ,
Aellalong,-32.9152,151.3346,NSW ,
Aero Park,-34.89347,138.52726,SA ,
Aerodrome Corner,-35.40335,148.82113,ACT ,
Aerodrome Road,-41.05519486,146.8427734,AHO ,
Aeroplane Bore,-26.25229,132.19246,SA ,
Aeroplane Number One,-26.25587,132.17961,SA ,
Aeroplane Number Two,-26.25229,132.19246,SA ,
Aeroplane,-26.25229,132.19246,SA ,
Afghan Camp,-17.14164,126.4496,WA ,
Afterlee,-28.5741,152.8287,NSW ,
Afterlee,-28.5818,152.8179,NSW ,
Aftonville,-33.18214,138.00753,SA ,
Agar Road,-38.45124817,145.4436035,AHO ,
Agery,-34.15675,137.74287,SA ,
Agnes Banks,-33.6152,150.7179,NSW ,
Agnes Water,-24.21257973,151.9032745,AHO ,
Agnew,-28.01194,120.5186,WA ,
Agu Ngalangalangali,-15.4272,124.5938,WA ,
Ahearn Lookout,-34.2985,150.3846,NSW ,
Ainslie,-35.26218,149.14792,ACT ,
Airds,-34.0902,150.8262,NSW ,
Airedale,-33.20314,137.98892,SA ,
Aireys Inlet,-38.46236038,144.1004181,AHO ,
Airlie Beach,-20.26666069,148.715271,AHO ,
Airlie Island Marine Terminal Pilot Boarding Place,-21.16544724,115.1020203,AHO ,
Airlie Park,-34.87604,138.59466,SA ,
Airly,-33.0985,150.0512,NSW ,
Ajana Kalbari Road,-27.89541817,114.5545807,AHO ,
Ajana,-27.44958,114.2398,WA ,
Ajana,-27.94875,114.6348,WA ,
Akaroa,-41.29999924,148.3099976,TAS ,
Akaroa,-41.30221558,148.3166504,AHO ,
Akelelee,-36.3485,150.0679,NSW ,
Akngwertnarre,-23.6928,133.8612,NT ,
Akolele,-36.3485,150.0679,NSW ,
Akolele,-36.34931564,150.0741577,AHO ,
Akurrula,-30.32213,139.43796,SA ,
Akwalirrumanja Community,-13.84502506,136.7703857,AHO ,
Alagala,-32.4152,147.7012,NSW ,
Alanvale,-41.38000107,147.1199951,TAS ,
Alanvale,-41.385952,147.1157074,AHO ,
Alawa,-12.3798,130.8732,NT ,
Alawoona,-34.73699446,140.5087325,SA ,
Albany Highway,-35.01718521,117.8780747,AHO ,
Albany Street,-33.44391251,151.3430176,AHO ,
Albany Torbay Road,-35.01272583,117.8141785,AHO ,
Albany,-35.01739883,117.8837967,AHO ,
Albany,-35.0174,117.8838,WA ,
Albermarle,-32.2652,142.6346,NSW ,
Albert Hill,-35.56127759,139.3627873,SA ,
Albert Park,-28.8235,153.2679,NSW ,
Albert Park,-34.87624,138.52204,SA ,
Albert Town,-34.85945,138.51643,SA ,
Albert,-32.3485,147.5012,NSW ,
Alberton East,-34.86284,138.52607,SA ,
Alberton South,-34.877,138.50781,SA ,
Alberton,-34.85945,138.51643,SA ,
Alberton,-41.29000092,147.7799988,TAS ,
Albino Rookery,-68.46190004,78.16179996,AAD ,
Albion Flat,-29.9318,151.2512,NSW ,
Albion Hill,-29.7818,151.1346,NSW ,
Albion Mill,-34.13222,116.8014,WA ,
Albion Park Rail,-34.5652,150.7929,NSW ,
Albion Park,-32.6652,151.6012,NSW ,
Albion Park,-34.57229233,150.7750397,AHO ,
Albion Park,-34.5818,150.7762,NSW ,
Albion,-31.7152,141.5762,NSW ,
Albion,-33.8652,151.2012,NSW ,
Albro,-34.89027,138.64964,SA ,
Albury,-36.0652,146.9012,NSW ,
Albury,-36.0735,146.9145,NSW ,
Alcheringa,-32.4485,150.7512,NSW ,
Alcoa of Australia,-32.1933136,115.7765045,AHO ,
Alcomie,-40.93000031,145.1900024,TAS ,
Aldavilla,-31.0818,152.7679,NSW ,
Alderley,-34.84054,138.48501,SA ,
Alderson,-33.19945,138.01107,SA ,
Aldersyde,-32.32793,117.2268,WA ,
Aldersyde,-32.37182,117.2773,WA ,
Aldervale,-33.97806,116.3336,WA ,
Aldgate North,-35.00821,138.73748,SA ,
Aldgate Park,-35.01758,138.72888,SA ,
Aldgate,-35.01573,138.73903,SA ,
Aldinga Beach Estate,-35.28311,138.44593,SA ,
Aldinga Beach,-35.29368,138.45876,SA ,
Aldinga North,-35.23385,138.50825,SA ,
Aldinga,-35.26911,138.48301,SA ,
Alectown,-32.908,148.2576,NSW ,
Alectown,-32.9318,148.2346,NSW ,
Aleppo,-31.44528,117.2219,WA ,
Alexander Heights,-31.82711,115.8706,WA ,
Alexandra Bridge,-34.15881,115.1999,WA ,
Alexandra Bridge,-34.16326,115.194,WA ,
Alexandra Headland,-26.67387962,153.1136017,AHO ,
Alexandra Park,-34.97973,138.57147,SA ,
Alexandra,-35.55615,138.62266,SA ,
Alexandria,-33.9152,151.1929,NSW ,
Alexandria,-34.98522,138.56151,SA ,
Alexandrina,-34.98474,138.55852,SA ,
Alexandrina,-35.54717,138.62403,SA ,
Alf O'Rourke Drive,-23.83172476,151.2393003,AHO ,
Alford,-33.81558,137.82207,SA ,
Alfords Point Road,-33.99055481,151.0266266,AHO ,
Alfords Point,-33.97768402,151.0339661,AHO ,
Alfords Point,-33.9872,151.022,NSW ,
Alfred Cove,-32.03045,115.8151,WA ,
Alfred Street,-33.86156464,151.2102509,AHO ,
Alfred Town,-35.1652,147.5179,NSW ,
Alfredtown,-35.1652,147.5179,NSW ,
Algebuckina,-27.92216134,135.8126782,SA ,
Ali Curung,-21.00336,134.40694,NT ,
Ali Curung,-21.0242,134.3212,NT ,
Ali Curung,LOCB,134.40694,NT ,
Alice Park,-36.09346,140.82941,SA ,
Alice Springs,-23.6994,133.88,NT ,
Alice Springs,-23.6994,133.8807,NT ,
Alice Street,-41.1513443,146.164093,AHO ,
Alice,-29.0555,152.5879,NSW ,
Aliceburgh,-34.34757504,138.5867194,SA ,
Alison,-32.4316,151.774,NSW ,
Alison,-32.4485,151.7846,NSW ,
Alison,-33.2652,151.3985,NSW ,
Aljoes Syphon,-35.5652,144.9846,NSW ,
Alkimos,-31.60683,115.6687,WA ,
Allambie Heights,-33.761,151.2512,NSW ,
Allambie Lookout,-33.7152,150.3012,NSW ,
Allandale East,-38.00198,140.70998,SA ,
Allandale North,-34.30113,138.91467,SA ,
Allandale,-32.7152,151.4179,NSW ,
Allanooka,-29.04876,115.0178,WA ,
Allanooka,-29.05292,115.1114,WA ,
Allanson,-33.32389,116.0881,WA ,
Allanson,-33.33556,116.0986,WA ,
Allanville,-33.35754,138.20719,SA ,
Allawah,-33.9735,151.1179,NSW ,
Alleena,-34.0652,147.1346,NSW ,
Allenby Gardens,-34.90064,138.55473,SA ,
Allendale East,-38.00198,140.70998,SA ,
Allendale North,-34.30113,138.91468,SA ,
Allendale,-33.1652,149.7096,NSW ,
Allendale,-37.61375,140.65545,SA ,
Allens Rivulet,-43.00999832,147.199997,TAS ,
Allens,-28.08622,118.0431,WA ,
Allgomera Creek,-30.8152,152.8179,NSW ,
Allgomera,-30.8135,152.8054,NSW ,
Allingham,-18.70833015,146.2952728,AHO ,
Allison Estate,-35.26004,138.90259,SA ,
Allundy Station,-29.8818,143.5679,NSW ,
Allworth Park,-32.5266,151.964,NSW ,
Allworth,-32.5368,151.9418,NSW ,
Allworth,-32.5399,151.9601,NSW ,
Allynbrook,-32.3477,151.5526,NSW ,
Allynbrook,-32.3652,151.5346,NSW ,
Alma Park,-35.5985,146.7846,NSW ,
Alma,-28.26514,114.64,WA ,
Alma,-28.26542,114.6014,WA ,
Alma,-31.9818,141.4596,NSW ,
Alma,-34.26685,138.63043,SA ,
Alma,-41.27000046,146.2299957,TAS ,
Almanda,-35.08193,138.67114,SA ,
Almond Grove,-34.87619,138.53915,SA ,
Almond Tree Corner,-33.07074,138.38372,SA ,
Alnwick,-32.7652,151.7012,NSW ,
Alonnah,-43.31000137,147.2400055,TAS ,
Alonnah,-43.31497192,147.2443085,AHO ,
Aloomba,-17.10988998,145.8333893,AHO ,
Alpine Way,-36.4318,148.5346,NSW ,
Alpine,-34.4093,150.5296,NSW ,
Alpurrurulam,-20.9839,137.8363,NT ,
Alpurrurulam,R,137.84749,NT ,
Alstonvale,-28.7957,153.4415,NSW ,
Alstonville,-28.8318,153.4346,NSW ,
Alstonville,-28.8421,153.4405,NSW,
Alta Mira,-34.99743586,138.6270188,SA ,
Altona,-34.14498,138.42638,SA ,
Altona,-34.59619,138.91403,SA ,
Alumy Creek,-29.6485,152.9512,NSW ,
Alveston,-41.52000046,146.6600037,TAS ,
Alyangula,-13.8506,136.4191,NT ,
Alyangula,-13.85099983,136.4207001,AHO ,
Alyangula,-13.851,136.4207,NT ,
Alyingberrma Community,-13.80112457,136.8352966,AHO ,
Amanbidji,R,129.6189,NT ,
Amanda Rookery,-69.25805556,76.84861111,AAD ,
Amangal Indigenous Village,R,131.1041,NT ,
Amaroo,-33.1652,148.9012,NSW ,
Amaroo,-35.17129,149.12877,ACT ,
Amarunya,-27.03979744,132.7253762,SA ,
Amata,-26.15153372,131.1479898,SA ,
Ambania,-28.63083,115.1353,WA ,
Ambania,-28.68209,115.1181,WA ,
Ambarvale,-34.0818,150.8012,NSW ,
Ambergate,-33.70631,115.3287,WA ,
Ambleside,-35.00443,138.80845,SA ,
Ambleside,-35.02881,138.80901,SA ,
Ambleside,-41.20000076,146.3699951,TAS ,
Amelup,-34.26544,118.2348,WA ,
Amelup,-34.27111,118.2289,WA ,
Amen Corner,-35.67776,137.21505,SA ,
American Beach,-35.76878,137.88024,SA ,
American Beach,-35.77739,137.87151,SA ,
American River Closer Settlement,-35.78374,137.76162,SA ,
American River,-35.77299881,137.7789764,AHO ,
American River,-35.773,137.77898,SA ,
American Yards,-35.4652,147.7512,NSW ,
American Yards,-35.5818,147.7846,NSW ,
Amerilup,-34.69879,117.3015,WA ,
Amery Acres,-31.1675,117.0736,WA ,
Amery Base,-69.5,71.41666412,AHO ,
Amery Ice Shelf,-69,72,AHO ,
Amery Ice Shelf,-69.66665649,73.33334351,AHO ,
Amery,-31.1482,117.0906,WA ,
Amesbury,-34.5652,146.3846,NSW ,
Amhurst Street,-41.15047455,146.1618042,AHO ,
Amity,-27.39782524,153.4408722,AHO ,
Amoonguna,-23.766319,133.935986,NT ,
Amoonguna,-23.7684,133.9303,NT ,
Amos Flat,-29.9068,153.2012,NSW ,
Amosfield,-28.6485,152.0679,NSW ,
Ampdale Crossing,-29.2152,152.9512,NSW ,
Ampdale,-29.2152,152.9512,NSW ,
Amphion,-32.76073,116.2082,WA ,
Amphitheatre Lookout,-34.6652,150.3179,NSW ,
Ampilatwatja," u'""""""""Amperlatwatye""""""""'",135.22509,NT ,
Ampilatwatja,-21.6653,135.244,NT ,
Ampol Refining Company Pty Ltd,-34.01325989,151.2194824,AHO ,
Amuroona,-26.8643164,133.0329745,SA ,
Amyton,-32.60943552,138.3291886,SA ,
Anabranch North,-33.2768,141.7515,NSW ,
Anabranch South,-33.693,141.7096,NSW ,
Anabranch,-33.5471,141.6524,NSW ,
Anama,-33.68983,138.56747,SA ,
Anama,-33.71139857,138.516775,SA ,
Anambah,-32.6735,151.4929,NSW ,
Anapala,-26.28534,132.13433,SA ,
Anatye,-23.064,136.829,NT ,
Anchor Ave,-41.05628586,145.9091187,AHO ,
Andamooka Opal Fields,-30.44706,137.16644,SA ,
Andamooka,-30.44706,137.16644,SA ,
Andandilia,-15.49442,124.624,WA ,
Andergrove,-21.09148979,149.1866455,AHO ,
Andersons Flat,-31.3818,151.1346,NSW ,
Andini,-35.00932,137.22062,SA ,
Ando,-36.7318,149.2679,NSW ,
Andoom,-12.53332996,141.8166657,AHO ,
Andover,-42.33000183,147.449997,TAS ,
Andrews Farm,-34.67484914,138.6590449,SA ,
Andrews,-33.59661,138.63129,SA ,
Andrewville,-35.05023,138.86873,SA ,
Anembo,-35.8152,149.4179,NSW ,
Angas Park,-34.97583,138.60867,SA ,
Angas Plains,-35.32712,139.01576,SA ,
Angas Plains,-35.32937,138.99154,SA ,
Angas Vale,-33.67913801,136.9161185,SA ,
Angas Valley,-34.75436,139.30827,SA ,
Angas,-35.65611,137.63852,SA ,
Angaston East,-34.50362,139.05156,SA ,
Angaston North,-34.49959,139.04948,SA ,
Angaston,-34.5015,139.04625,SA ,
Angatja,-26.06812,130.30814,SA ,
Angel Gully,-35.11378,138.61241,SA ,
Angelo River,-23.86562,118.4253,WA ,
Angle Grove,-33.67919,138.43468,SA ,
Angle Park,-32.3485,148.6596,NSW ,
Angle Park,-34.85614,138.56082,SA ,
Angle Pole,-27.50363071,135.4158526,SA ,
Angle Vale,-34.64113477,138.6469894,SA ,
Angledale Crossing,-36.6152,149.8846,NSW ,
Angledale,-36.6318,149.8846,NSW ,
Angledool,-29.1041,147.9179,NSW ,
Anglers Paradise,-27.92472267,153.403244,AHO ,
Anglers Paradise,-32.1818,152.5179,NSW ,
Anglers Reach,-36.0152,148.6679,NSW ,
Anglesea,-38.40729904,144.1858673,AHO ,
Angleton,-33.18938,138.01975,SA ,
Angourie Point,-29.4818,153.3596,NSW ,
Angourie,-29.4818,153.3596,NSW ,
Angurugu Community,-13.98029995,136.4613953,AHO ,
Angurugu,-13.9803,136.4614,NT ,
Angurugu,-13.982236,136.460569,NT ,
Angus Park,-34.46865,139.00764,SA ,
Angus Place,-33.3485,150.1012,NSW ,
Angwin Park,-34.66379,117.8518,WA ,
Anindilyakwa,-13.9515,136.5441,NT ,
Anketell,-32.21517,115.8659,WA ,
Anlaby Closer Settlement Estate,-33.96509,138.99072,SA ,
Anlaby Estate,-34.15096,138.99097,SA ,
Anlaby,-34.21963,138.96702,SA ,
Anmatjere,-21.7463,133.319,NT ,
Anmuryinna,-26.8643164,133.0329745,SA ,
Anna Bay,-32.7818,152.0846,NSW ,
Anna Bay,-32.78586578,152.0853729,AHO ,
Annadale,-34.39137,139.34886,SA ,
Annandale,-32.20822,116.8368,WA ,
Annandale,-33.8807,151.1698,NSW ,
Annangrove,-33.6596,150.9346,NSW ,
Annie,-42.40999985,147.3300018,TAS ,
Anniebrook,-33.66798,115.1676,WA ,
Anns Vale,-34.2985,148.7679,NSW ,
Anona,-33.7485,146.6346,NSW ,
Anro,-30.36778,116.2653,WA ,
Ansons Bay,-41.02999878,148.2599945,TAS ,
Antara,-27.11548,132.58835,SA ,
Antarctica,-68,125,AHO ,
Antechamber Bay,-35.78769,138.05868,SA ,
Anthelk Ewlpaye,R,133.879319,NT ,
Anthepe,NT,133.8655,NT ,
Antiene,-32.3318,150.9846,NSW ,
Antienne,-32.3318,150.9846,NSW ,
Antill Ponds,-42.20000076,147.3999939,TAS ,
Antini,-35.00932,137.22062,SA ,
Antonymyre,-20.62139,117.0817,WA ,
Anula,-12.3903,130.8905,NT ,
Anzac Parade,-33.95537949,151.2429657,AHO ,
Apamurra,-34.85688,139.19644,SA ,
Aparatjara,-26.12936886,129.7949501,SA ,
Aparatjara,-26.13401246,129.7102518,SA ,
Aparawilinitja,-26.99306429,132.0329969,SA ,
Aparawilinitja,-27.25103613,131.9717797,SA ,
Apatiri,-26.26722375,130.924869,SA ,
Aper Alwerrknge,R,133.870847,NT ,
Apex Drive,-35.02786636,117.9040909,AHO ,
Apex Lookout,-29.3818,151.2512,NSW ,
Apex Lookout,-32.3818,150.6512,NSW ,
Apex Lookout,-32.5568,151.1429,NSW ,
Aplin Street,-16.92111206,145.773056,AHO ,
Apoinga,-33.92793,138.939,SA ,
Apollo Bay,-38.75939941,143.6721954,AHO ,
Apollo Bay,-43.15999985,147.2700043,TAS ,
Appadene,-34.24714,116.0393,WA ,
Appertarra,-28.31542,114.6678,WA ,
Appila,-33.05116653,138.428832,SA ,
Appin,-34.2068,150.7846,NSW ,
Apple Grove,-34.1485,150.3179,NSW ,
Apple Tree Flat,-29.1318,151.0012,NSW ,
Apple Tree Flat,-31.7985,152.2512,NSW ,
Apple Tree Flat,-32.6818,149.7012,NSW ,
Apple Tree Flat,-34.7985,150.3179,NSW ,
Apple Tree,-29.3818,151.3012,NSW ,
Apple-Tree Flat,-33.8485,150.3012,NSW ,
Appleby,-30.9652,150.8512,NSW ,
Applecross,-32.01184,115.8368,WA ,
Applecross,-32.01406,115.8387,WA ,
Appleton,-34.13748,138.68452,SA ,
Appletree Clearing,-32.8152,150.6846,NSW ,
Appletree Flat,-31.7985,152.2512,NSW ,
Appletree Flat,-32.5152,150.8679,NSW ,
Appletree Flat,-33.8485,150.3012,NSW ,
Appletree Hill,-33.7318,150.8179,NSW ,
Apslawn,-41.95000076,148.1499939,TAS ,
Apslawn,-41.95000076,148.1799927,TAS ,
Apsley Town,-36.48935,140.52478,SA ,
Apsley,-32.5985,148.9679,NSW ,
Apsley,-42.43000031,147.1399994,TAS ,
Arabanoo Lookout,-33.8068,151.2679,NSW ,
Arable,-36.3902,148.9846,NSW ,
Aragoon,-14.44108,126.6357,WA ,
Arajoel,-35.0485,146.9012,NSW ,
Arakoon,-30.8652,153.0846,NSW ,
Arakoon,-30.88975334,153.0679169,AHO ,
Araleun,-26.1492,132.00622,SA ,
Araluen Lower,-35.6985,149.8512,NSW ,
Araluen North,-35.6318,149.8012,NSW ,
Araluen West,-35.6318,149.8012,NSW ,
Araluen,-23.6971,133.856,NT ,
Araluen,-26.1492,132.00622,SA ,
Araluen,-32.12211,116.1056,WA ,
Araluen,-35.6485,149.8179,NSW ,
Aralya,-26.66863512,129.20478,SA ,
Aranda,-35.25806,149.08042,ACT ,
Ararat,-32.5568,150.8346,NSW ,
Ararlagu,-11.52721977,133.3984833,AHO ,
Aratula,-35.7764,145.2844,NSW ,
Arawerr,R,134.84618,NT ,
Arboretum Lookout,-29.5985,152.9179,NSW ,
Arcadia Vale,-33.0584,151.5726,NSW ,
Arcadia,-19.14611053,146.8608398,AHO ,
Arcadia,-33.6235,151.0429,NSW ,
Arcadian Home,-42.70999908,146.699997,TAS ,
Archer Street,-19.25996971,146.8276978,AHO ,
Archer,-12.522,130.9609,NT ,
Archies Rocks,-31.7818,150.8679,NSW ,
Archikeelya Paddock,-17.41664,126.2054,WA ,
Archville,-30.39081001,153.0551453,AHO ,
Archville,-30.3985,153.0512,NSW ,
Arcoona,-30.41758,122.182,WA ,
Ardath,-32.03042,118.0943,WA ,
Ardath,-32.03375,118.1148,WA ,
Arden Vale,-32.24062,138.03793,SA ,
Ardglen,-31.7318,150.7846,NSW ,
Arding,-30.5652,151.5512,NSW ,
Arding,-30.5677,151.5254,NSW ,
Ardingly,-28.58347,115.4428,WA ,
Ardlethan,-34.3485,146.9012,NSW ,
Ardoo Station,-29.7818,143.5346,NSW ,
Ardross,-32.02767,115.8365,WA ,
Ardrossan Extension,-34.42231,137.91211,SA ,
Ardrossan,-34.42483139,137.9165802,AHO ,
Ardrossan,-34.42483162,137.916584,SA ,
Ardtornish,-34.83348,138.70456,SA ,
Areyonga,-24.073612,132.27083,NT ,
Areyonga,-24.0871,132.272,NT ,
Argalong,-35.3152,148.4346,NSW ,
Argenton,-32.9354,151.6322,NSW ,
Argents Hill,-30.6089,152.7294,NSW ,
Argita,-28.38209,114.6845,WA ,
Argoon,-34.8849,145.6752,NSW ,
Argunalang Nalang Ngari,-15.41637,124.6199,WA ,
Argyle Street,-33.85870743,151.2060394,AHO ,
Argyle,-30.5799,151.8437,NSW ,
Argyle,-33.54611,115.7708,WA ,
Argyle,-33.54686,115.7671,WA ,
Ariah Park,-34.3318,147.2179,NSW ,
Arkaroola Village,-30.31155,139.33565,SA ,
Arkell,-33.7318,149.3846,NSW ,
Arkstone,-34.0318,149.6596,NSW ,
Arlu Mai Yordu,-15.35748,124.7321,WA ,
Arluwampi,-11.79489994,130.3834992,AHO ,
Armadale,-32.14406,115.9993,WA ,
Armadale,-32.15322,116.0151,WA ,
Armagh North,-33.85513,138.62628,SA ,
Armagh South,-33.91591,138.66735,SA ,
Armagh,-33.82843,138.58141,SA ,
Armatree,-31.4318,148.4679,NSW ,
Armidale,-30.5152,151.6651,NSW ,
Armstrong Hollow,-31.31267,115.4848,WA ,
Armstrongs Beach,-21.45542908,149.2899475,AHO ,
Armton North,-34.84933,138.54348,SA ,
Arncliffe,-33.9387,151.1475,NSW ,
Arndell Park,-33.7902,150.8762,NSW ,
Arno Bay,-33.90932351,136.5690483,SA ,
Arno Bay,-33.90935516,136.5686493,AHO ,
Arnold,-16.1414,134.3935,NT ,
Arnolds Crossing,-42.84999847,147.4100037,TAS ,
Arrah-Hurry-Mi-Alli,-29.1818,150.0512,NSW ,
Arranoo,-29.25515,114.9512,WA ,
Arrawarra Headland,-30.0688,153.1954,NSW ,
Arrawarra,-30.0512,153.1912,NSW ,
Arrawarra,-30.06063271,153.1906891,AHO ,
Arrino,-29.43931,115.6278,WA ,
Arrino,-29.43944,115.6278,WA ,
Arrowsmith East,-29.54556,115.3481,WA ,
Arrowsmith,-29.59182,115.1223,WA ,
Artarmon,-33.812,151.1847,NSW ,
Arthur River,-33.33972,117.0344,WA ,
Arthur River,-33.351,117.0318,WA ,
Arthur River,-41.04000092,144.6600037,TAS ,
Arthur River,-41.04999161,144.6632996,AHO ,
Arthur of Trunkey Creek,-33.8152,149.3346,NSW ,
Arthurs Lake,-41.99000168,146.949997,TAS ,
Arthurton,-34.25917,137.75556,SA ,
Arthurville,-32.5485,148.7346,NSW ,
Arumbera,-23.7801,133.81,NT ,
Arumpo,-33.8746,142.8846,NSW ,
Arumvale,-34.17409,115.0815,WA ,
Ascot Park,-34.98789,138.56149,SA ,
Ascot Vale,-34.93875,138.62748,SA ,
Ascot,-31.93767,115.9276,WA ,
Ash Hall,-33.14974128,137.201446,SA ,
Ashbourne,-35.28725,138.76677,SA ,
Ashbridge,-34.6652,146.9679,NSW ,
Ashbury,-33.9012,151.1177,NSW ,
Ashby Heights,-29.3985,153.1762,NSW ,
Ashby Island,-29.4235,153.2012,NSW ,
Ashby,-29.4318,153.1929,NSW ,
Ashby,-31.73322,115.7979,WA ,
Ashby,-34.83695,138.58573,SA ,
Ashcroft,-33.9152,150.9012,NSW ,
Ashendon,-32.19139,116.1792,WA ,
Ashendon,-32.21489,116.197,WA ,
Ashfield,-31.91739,115.9379,WA ,
Ashfield,-33.8894,151.1274,NSW ,
Ashford Estate,-34.94881,138.5746,SA ,
Ashford South,-34.94881,138.5746,SA ,
Ashford,-29.3152,151.0846,NSW ,
Ashford,-33.85763,138.51163,SA ,
Ashford,-34.94857,138.57436,SA ,
Ashlea Flat,-31.8485,152.3179,NSW ,
Ashley,-29.3152,149.8179,NSW ,
Ashmont,-35.1245,147.3322,NSW ,
Ashmore,-33.6923,138.95158,SA ,
Ashton,-30.2318,152.9012,NSW ,
Ashton,-34.93936,138.73834,SA ,
Ashtonfield,-32.7818,151.6012,NSW ,
Ashville,-35.510584,139.3656236,SA ,
Ashville,-36.6485,149.6012,NSW ,
Ashwater,-41.15000153,146.0099945,TAS ,
Aspendale,-38.02708435,145.1018066,AHO ,
Asplin,-33.80657,116.4935,WA ,
Asquith,-33.6902,151.1096,NSW ,
Aston Downs,-33.79139,115.3189,WA ,
Athelstone,-34.87116,138.70668,SA ,
Athenley,-34.98032,138.59736,SA ,
Athenna,-32.02264298,133.4378334,SA ,
Atherley,-33.81914,138.58857,SA ,
Athol Farm Estate,-34.85308,138.54011,SA ,
Athol Glen,-30.0318,153.0346,NSW ,
Athol Park,-34.85591,138.54254,SA ,
Athol Siding,-33.5485,149.3012,NSW ,
Athol Street,-20.30944061,118.6256027,AHO ,
Atholwood,-28.9985,151.0512,NSW ,
Atitjere,-22.9821,134.9328,NT ,
Atitjere,NT,134.9341,NT ,
Attadale,-32.02489,115.802,WA ,
Attadale,-32.0248909,115.802002,AHO ,
Attamurra,-37.81336,140.81847,SA ,
Attunga Road,-34.04912949,151.1042633,AHO ,
Attunga,-30.9318,150.8512,NSW ,
Atwell,-32.14295,115.8668,WA ,
Aubin Grove,-32.17139,115.8628,WA ,
Auburn North,-33.8485,151.0512,NSW ,
Auburn South,-33.8485,151.0429,NSW ,
Auburn Vale,-29.821,151.0454,NSW ,
Auburn West,-33.8568,151.0179,NSW ,
Auburn,-33.8485,151.0346,NSW ,
Auburn,-34.02631,138.68463,SA ,
Auckland Street,-23.83793357,151.2549517,AHO ,
Audley Estate,-34.90342,138.55892,SA ,
Audley Road,-34.06691361,151.0566711,AHO ,
Audley,-34.07302856,151.0594177,AHO ,
Audley,-34.0818,151.0512,NSW ,
Audrey Park Estate,-34.95897,138.55067,SA ,
Audrey Park,-34.97379,138.60708,SA ,
Augsburg,-34.35237,139.61908,SA ,
Augusta Park Extension East,-32.5004,137.78783,SA ,
Augusta Park Extension,-32.50135,137.78574,SA ,
Augusta Park,-32.49979,137.78433,SA ,
Augusta River Mouth,-34.32382,115.1718,WA ,
Augusta,-34.30659,115.1454,WA ,
Augusta,-34.31243,115.1593,WA ,
Augusta,-34.31243133,115.1593018,AHO ,
Auldana,-34.91789,138.68717,SA ,
Aurania,-30.3152,152.9846,NSW ,
Aurukun,-13.35849857,141.7280731,AHO ,
Aurville,-34.5485,148.3846,NSW ,
Auster Rookery,-67.3564682,64.07395172,AHO ,
Austin,-27.63972,117.8739,WA ,
Austinmer,-34.3032,150.9301,NSW ,
Austinmer,-34.3068,150.9346,NSW ,
Austinmer,-34.30688095,150.9287109,AHO ,
Austins Crossing,-30.4318,151.2012,NSW ,
Austins Ferry,-42.77999878,147.25,TAS ,
Austral Brindisi Estate,-34.7993,138.49785,SA ,
Austral Brindisi,-34.80096,138.49277,SA ,
Austral Eden,-31.0318,152.9346,NSW ,
Austral,-33.9318,150.8179,NSW ,
Australia Plains,-34.09703,139.15616,SA ,
Australian Oil Refining Ltd,-34.0181427,151.2122803,AHO ,
Australind,-33.27352,115.7235,WA ,
Australind,-33.28240967,115.7132034,AHO ,
Australind,-33.28241,115.7132,WA ,
Auto Racing Circuit,-38.49958038,145.2339935,AHO ,
Automotive Proving Ground,-38.346241,145.5675964,AHO ,
Avalon Beach,-33.6318,151.3179,NSW ,
Avalon Parade,-33.63408661,151.3236084,AHO ,
Avalon,-32.0652,152.2846,NSW ,
Avalon,-33.63541412,151.3269348,AHO ,
Aveley,-31.78083,115.9883,WA ,
Avenue Park,-34.97263,138.57778,SA ,
Avenue Range,-36.92547,140.17611,SA ,
Avenue,-36.94284849,140.229571,SA ,
Avis Park,-33.2023,138.01242,SA ,
Avisford,-32.7318,149.4846,NSW ,
Avoca Beach,-33.4652,151.4346,NSW ,
Avoca Beach,-33.46961212,151.4320221,AHO ,
Avoca Dell,-35.09176,139.3119,SA ,
Avoca Drive,-33.4535141,151.3596191,AHO ,
Avoca,-33.4652,151.4346,NSW ,
Avoca,-33.46961212,151.4320221,AHO ,
Avoca,-34.5968,150.4662,NSW ,
Avoca,-34.6152,150.4846,NSW ,
Avoca,-41.77999878,147.7200012,TAS ,
Avon Valley National Park,-31.63111,116.1903,WA ,
Avon,-34.28394964,138.3360379,SA ,
Avon,-34.4255,150.676,NSW ,
Avondale,-32.1152,149.3346,NSW ,
Avondale,-33.0735,151.4512,NSW ,
Avondale,-34.5152,150.7512,NSW ,
Avondale,-34.5232,150.7329,NSW ,
Avonel,-33.4152,148.7512,NSW ,
Avonside,-36.4107,148.7199,NSW ,
Awaba Street,-33.82170105,151.2497711,AHO ,
Awaba,-33.0152,151.5346,NSW ,
Aylmerton,-34.4152,150.4846,NSW ,
Aylmerton,-34.421,150.4973,NSW ,
Ayr,-19.56805611,147.4058228,AHO ,
Ayton,-15.92152023,145.3530426,AHO ,
BAARMUTHA,-36.3995833,146.6554167,VIC ,
BABINDA,-17.34235193,145.9236035,QLD ,
BABINDA,-17.343971,145.92137,GA ,
BABINDA,-17.34666824,145.9230652,QLD ,
BACCHUS MARSH,-37.6752243,144.4491592,VIC ,
BACCHUS MARSH,-37.67571,144.43655,GA ,
BACK CREEK,-23.56666667,145.6666667,QLD ,
BACK CREEK,-36.3520833,146.8395833,VIC ,
BACK PLAINS,-27.9,151.78333,QLD ,
BADDAGINNIE,-36.6035488,145.88312,VIC ,
BADDAGINNIE,-36.6287587,145.8321282,VIC ,
BADDOW,-25.53333333,152.6833333,QLD ,
BADEN POWELL,-38.1640278,145.1109722,VIC ,
BADGER CREEK,-37.6879715,145.5431475,VIC ,
BADILLA,-19.68178002,147.4233229,QLD ,
BADU ISLAND,-10.120278,142.139435,QLD ,
BADU,-10.13239905,142.1875024,QLD ,
BADU,-10.15842,142.16483,GA ,
BAEL BAEL,-35.6843317,143.7430104,VIC ,
BAFFLE CREEK,-24.48889,151.925003,QLD ,
BAFFLE WEST,-25.59556,148.62889,QLD ,
BAGDAD,-42.62968,147.22339,GA ,
BAGSHOT NORTH,-36.5871718,144.4174635,VIC ,
BAGSHOT,-36.6538935,144.393065,VIC ,
BAHGALLAH,-37.6834944,141.3059141,VIC ,
BAHRS SCRUB,-27.73778,153.17333,QLD ,
BAILIESTON EAST,-36.7401389,145.1084722,VIC ,
BAILIESTON,-36.7533238,145.082754,VIC ,
BAIRNSDALE EAST,-37.8234722,147.6490278,VIC ,
BAIRNSDALE,-37.82289,147.61042,GA ,
BAIRNSDALE,-37.8561757,147.5868482,VIC ,
BAJOOL,-23.651112,150.641937,QLD ,
BAJOOL,-23.696943,150.580826,QLD ,
BAKER,-36.0873611,141.6009722,VIC ,
BAKERS BEND,-26.73344421,146.0811615,QLD ,
BAKERS CORNER,-38.1745833,142.9204167,VIC ,
BAKERS CREEK,-21.214445,149.156662,QLD ,
BAKERS CREEK,-21.22037847,149.1466387,QLD ,
BAKERS CREEK,-21.2212395,149.1474975,GA ,
BAKERS HILL,-31.74891,116.45664,GA ,
BAKERY HILL,-37.563267,143.8658625,VIC ,
BAKING BOARD,-26.69833,150.56444,QLD ,
BALACLAVA,-37.8706865,144.9948454,VIC ,
BALAKLAVA,-34.14542,138.41148,GA ,
BALARRGAN,-25.4,153.0166667,QLD ,
BALBERRA,-21.298611,149.141113,QLD ,
BALBUNA,-27.95,146.1333333,QLD ,
BALCOMBA,-23.32361,149.64333,QLD ,
BALCOMBE,-38.2779167,145.0198611,VIC ,
BALD HILL,-37.2256944,144.5123611,VIC ,
BALD HILLS,-27.30833244,153.0122223,QLD ,
BALD HILLS,-37.429442,143.84915,VIC ,
BALD HILLS,-37.44225,143.8354154,VIC ,
BALD KNOB,-26.7825,152.90833,QLD ,
BALD MOUNTAIN,-28.9,151.9166667,QLD ,
BALD ROCK,-36.03125,144.20875,VIC ,
BALDIVIS,-32.32702,115.81973,GA ,
BALGAL BEACH,-19.01634,146.4083,GA ,
BALGAL BEACH,-19.04388809,146.4116669,QLD ,
BALGAL,-19.01428733,146.4069314,QLD ,
BALGOWAN,-27.25333,151.69444,QLD ,
BALHANNAH,-34.99094,138.82565,GA ,
BALINGUP,-33.78817,115.98545,GA ,
BALINTORE,-38.2812138,143.573461,VIC ,
BALL BAY,-20.9044985,148.99512,GA ,
BALL BAY,-20.90593511,148.9969176,QLD ,
BALL BAY,-20.929443,148.987228,QLD ,
BALLAARAT,-37.5598611,143.8543056,VIC ,
BALLAMOO FLAT,-23.95,149.1333333,QLD ,
BALLAN,-37.59987,144.2289,GA ,
BALLAN,-37.6038261,144.2197579,VIC ,
BALLANDEAN,-28.80090987,151.8427595,QLD ,
BALLANDEAN,-28.86444473,151.816391,QLD ,
BALLANGEICH NORTH,-38.1841667,142.6502778,VIC ,
BALLANGEICH,-38.1863397,142.614966,VIC ,
BALLAPUR,-35.979172,142.747934,VIC ,
BALLARA,-20.91666667,139.9666667,QLD ,
BALLARAT CENTRAL (CENTRAL BUSINESS DISTRICT) NEIGHBOURHOOD SAFER PLACE,-37.5617091,143.8556398,VIC ,
BALLARAT CENTRAL,-37.562866,143.8505991,VIC ,
BALLARAT EAST,-37.5631994,143.8685483,VIC ,
BALLARAT NORTH,-37.5397425,143.8676196,VIC ,
BALLARAT SOUTH,-37.5701389,143.8398611,VIC ,
BALLARAT,-37.5598611,143.8543056,VIC ,
BALLARAT,-37.56266,143.86258,GA ,
BALLARD,-27.49944496,151.980545,QLD ,
BALLARK,-37.7331944,144.1165278,VIC ,
BALLAROO,-27.11444,148.62222,QLD ,
BALLENDELLA,-36.293235,144.6694014,VIC ,
BALLIANG EAST,-37.8084234,144.4369788,VIC ,
BALLIANG,-37.7924549,144.3344779,VIC ,
BALLIANG,-37.8573594,144.3754413,VIC ,
BALLINA,-28.86414,153.56541,GA ,
BALLOGIE,-26.33722305,151.53862,QLD ,
BALLOONG,-38.5865278,146.8429167,VIC ,
BALLY JUNCTION,-14.15,142.6333333,QLD ,
BALLY KEEL,-21.26666667,149.2333333,QLD ,
BALLYHOOLY,-16.56666667,145.4666667,QLD ,
BALLYROGAN,-37.4282556,143.0750723,VIC ,
BALMATTUM EAST,-36.7079167,145.6520833,VIC ,
BALMATTUM EAST,-38.5118056,145.6123611,VIC ,
BALMATTUM,-36.7137248,145.664179,VIC ,
BALMORAL (COMMUNITY COLLEGE CAR PARK) NEIGHBOURHOOD SAFER PLACE,-37.2397222,141.8233333,VIC ,
BALMORAL (MEMORIAL HALL AND BOWLS CLUB GROUNDS) NEIGHBOURHOOD SAFER PLACE,-37.2486571,141.8419056,VIC ,
BALMORAL RIDGE,-26.74361229,152.8916626,QLD ,
BALMORAL,-27.45416832,153.066391,QLD ,
BALMORAL,-34.31153,150.51608,GA ,
BALMORAL,-37.2132265,141.8245461,VIC ,
BALNAGOWAN,-21.118055,149.018051,QLD ,
BALNARRING (VILLAGE SHOPPING CENTRE SUPERMARKET CAR PARK) NEIGHBOURHOOD SAFER PLACE,-38.3727129,145.1252671,VIC ,
BALNARRING BEACH,-38.38971,145.12434,GA ,
BALNARRING BEACH,-38.3913056,145.1216088,VIC ,
BALNARRING NORTH,-38.3593056,145.1356944,VIC ,
BALNARRING,-38.356122,145.123636,VIC ,
BALNARRING,-38.37353,145.1264,GA ,
BALOOK,-38.4196858,146.5304676,VIC ,
BALOOK,-38.4391397,146.592921,VIC ,
BALRANALD,-34.6394,143.56333,GA ,
BALROOTAN NORTH,-36.2654167,141.7193056,VIC ,
BALWYN NORTH,-37.7904326,145.08496,VIC ,
BALWYN NORTH,-37.7934329,145.1074333,VIC ,
BALWYN,-37.809702,145.0823037,VIC ,
BAMAGA,-10.8516674,142.4272308,QLD ,
BAMAGA,-10.88794642,142.3888937,QLD ,
BAMAGA,-10.8920885,142.387281,GA ,
BAMAWM EXTENSION,-36.1776304,144.603538,VIC ,
BAMAWM,-36.2592593,144.627882,VIC ,
BAMBAROO,-18.88750076,146.1855621,QLD ,
BAMBILL,-34.4054167,141.5018056,VIC ,
BAMBOO CREEK,-17.55277634,145.9891663,QLD ,
BAMBOO,-16.35472298,145.3916626,QLD ,
BAMBRA,-38.3615985,143.952193,VIC ,
BAMGANIE,-37.9395683,143.9954126,VIC ,
BAN BAN SPRINGS,-25.676111,151.820557,QLD ,
BAN BAN,-25.705278,151.828888,QLD ,
BANANA,-24.42980311,150.155244,QLD ,
BANANA,-24.47230399,150.1283131,QLD ,
BANAPAN,-25.6,151.5833333,QLD ,
BANCROFT,-24.794167,151.28862,QLD ,
BANDIANA,-36.1312354,146.9303052,VIC ,
BANGALEE,-23.078335,150.783615,QLD ,
BANGALEE,-24.005278,151.431946,QLD ,
BANGALL,-22.420277,144.009171,QLD ,
BANGALOW,-28.68675,153.52392,GA ,
BANGERANG,-36.1975565,142.581473,VIC ,
BANGHOLME,-38.0467424,145.1719841,VIC ,
BANKS CREEK (BRISBANE CITY),-27.381945,152.751114,QLD ,
BANKS CREEK (SOMERSET REGIONAL COUNCIL),-27.41527748,152.7177734,QLD ,
BANKS POCKET,-26.15138817,152.6708374,QLD ,
BANKSIA BEACH,-27.0419445,153.1388855,QLD ,
BANKSIA PENINSULA,-37.9505556,147.6619444,VIC ,
BANNERTON,-34.7377885,142.7920345,VIC ,
BANNOCKBURN,-27.76000023,153.1922302,QLD ,
BANNOCKBURN,-38.04894,144.16882,GA ,
BANNOCKBURN,-38.049043,144.1572925,VIC ,
BANOOL,-38.6495833,143.5518056,VIC ,
BANYAN,-35.6128655,142.7881121,VIC ,
BANYENA SOUTH,-36.6295833,142.7515278,VIC ,
BANYENA,-36.5835313,142.8400664,VIC ,
BANYENONG,-36.2593056,143.0315278,VIC ,
BANYO,-27.37889,153.08167,QLD ,
BANYULE,-37.74375,145.0784722,VIC ,
BAPAUME,-28.57527924,151.8408356,QLD ,
BARADINE,-30.9485595,149.0692865,GA ,
BARAKULA,-26.33111,150.59778,QLD ,
BARALABA,-24.18115,149.81121,GA ,
BARALABA,-24.18202582,149.8133159,QLD ,
BARALABA,-24.31591566,149.9244289,QLD ,
BARAMBAH CREEK,-25.63333333,151.7,QLD ,
BARAMBAH RANGES,-26.28333333,152.15,QLD ,
BARAMBAH,-26.316387,152.131668,QLD ,
BARANDUDA,-36.183537,146.9469715,GA ,
BARANDUDA,-36.1847305,146.9613016,VIC ,
BARCALDINE DOWNS,-23.801943,144.978882,QLD ,
BARCALDINE,-23.5522455,145.2863265,GA ,
BARCALDINE,-23.55567425,145.2889329,QLD ,
BARCALDINE,-23.570002,145.329437,QLD ,
BARDI (ONE ARM POINT),-16.44639,123.06434,GA ,
BARDON,-27.45833,152.97917,QLD ,
BARDUTHULLA,-26.05,146.4166667,QLD ,
BAREE,-23.621111,150.389725,QLD ,
BARELLAN POINT,-27.57139,152.844711,QLD ,
BARELLAN,-34.285049,146.573638,GA ,
BAREP,-36.1990278,144.98125,VIC ,
BARFOLD,-37.103565,144.5015544,VIC ,
BARGARA,-24.814937,152.462987,GA ,
BARGARA,-24.8206379,152.4624327,QLD ,
BARGARA,-24.82611275,152.46138,QLD ,
BARGO,-34.291806,150.579828,GA ,
BARGUNYAH,-27.24222,147.42611,QLD ,
BARHAM,-35.624368,144.128989,GA ,
BARING,-35.3890278,142.0804167,VIC ,
BARINGHUP WEST,-36.962783,143.8988935,VIC ,
BARINGHUP,-36.9766545,143.970935,VIC ,
BARJARG,-36.8954408,145.9572307,VIC ,
BARJARG,-36.9157157,146.0055923,VIC ,
BARKER CREEK FLAT,-26.6455555,151.9447174,QLD ,
BARKERS CREEK,-26.73333333,151.8166667,QLD ,
BARKERS CREEK,-37.021954,144.2337505,VIC ,
BARKLY,-20.62488937,138.5037079,QLD ,
BARKLY,-36.894313,143.2145993,VIC ,
BARKLY,-36.9455217,143.2224542,VIC ,
BARKSTEAD,-37.4729339,144.1012894,VIC ,
BARLIL,-26.20972252,151.8905487,QLD ,
BARLOWS HILL,-23.109446,150.740555,QLD ,
BARLYNE,-25.737223,151.639999,QLD ,
BARMAH EAST,-36.0129167,145.0081944,VIC ,
BARMAH,-35.950122,144.9784105,VIC ,
BARMARYEE,-23.145,150.708054,QLD ,
BARMEDMAN,-34.1450115,147.38669,GA ,
BARMERA,-34.25562,140.46147,GA ,
BARMOYA EAST,-23.15,150.5333333,QLD ,
BARMOYA,-23.127777,150.539734,QLD ,
BARMUNDU,-24.13333333,151.2,QLD ,
BARNADOWN,-36.6501276,144.5285255,VIC ,
BARNARD,-24.00778,149.68389,QLD ,
BARNAWARTHA (SPORTS GROUND PAVILION) NEIGHBOURHOOD SAFER PLACE,-36.1032936,146.6713001,VIC ,
BARNAWARTHA NORTH,-36.0793953,146.7555033,VIC ,
BARNAWARTHA SOUTH,-36.1859722,146.7543056,VIC ,
BARNAWARTHA,-36.0810192,146.672406,VIC ,
BARNAWATHA,-36.1054445,146.673563,GA ,
BARNEY POINT,-23.84638977,151.2663879,QLD ,
BARNEY VIEW,-28.237501,152.76445,QLD ,
BARNIE BOLAC,-37.9656944,143.0106944,VIC ,
BAROMI,-38.4026846,146.1773145,VIC ,
BARONGAROOK WEST,-38.434643,143.545416,VIC ,
BARONGAROOK,-38.4276995,143.6142145,VIC ,
BARONTA,-20.88333333,144.5166667,QLD ,
BAROOGA,-35.9074855,145.695197,GA ,
BAROON POCKET,-26.7,152.8666667,QLD ,
BAROONDAH,-25.68277741,149.1769562,QLD ,
BARRABA,-30.380471,150.610162,GA ,
BARRABOOL,-38.1660349,144.2276354,VIC ,
BARRAKEE,-36.2652055,143.4487521,VIC ,
BARRAMORNIE,-27.0725,150.09444,QLD ,
BARRAMUNGA,-38.582106,143.7223075,VIC ,
BARRAPORT WEST,-36.0202945,143.5493453,VIC ,
BARRAPORT,-35.998173,143.6688825,VIC ,
BARRATTA,-19.56944466,147.2369537,QLD ,
BARRILGIE,-18.948055,146.284729,QLD ,
BARRINE,-17.22777748,145.6161194,QLD ,
BARRINGHA,-19.52916718,146.8147278,QLD ,
BARRINGO,-37.4193056,144.6304167,VIC ,
BARRINGUN,-28.861389,145.792236,QLD ,
BARRON GORGE,-16.88166618,145.664444,QLD ,
BARRON,-16.86555672,145.7099915,QLD ,
BARRYS REEF,-37.4554596,144.3122343,VIC ,
BARTLE FRERE,-17.43972206,145.8849945,QLD ,
BARTON,-37.3206944,142.7145833,VIC ,
BARUNAH PARK,-38.0069946,143.8370584,VIC ,
BARUNAH PLAINS,-38.0476384,143.770389,VIC ,
BARUNGA (BAMYILI),-14.524362,132.864457,GA ,
BARWIDGEE SETTLEMENT,-36.5918056,146.8593056,VIC ,
BARWIDGEE,-36.5119339,146.7727075,VIC ,
BARWIDGI,-17.66555595,144.6483307,QLD ,
BARWITE,-37.0193995,146.2137369,VIC ,
BARWO,-36.0379167,145.1584722,VIC ,
BARWON DOWNS,-38.5077655,143.7928232,VIC ,
BARWON HEADS,-38.2737781,144.4886244,VIC ,
BARWON HEADS,-38.27488,144.49277,GA ,
BASALT,-19.74056,145.25389,QLD ,
BASALT,-37.3085911,144.1032194,VIC ,
BASAN CORNER,-37.8968056,145.6693056,VIC ,
BASANS CORNER,-37.8968056,145.6693056,VIC ,
BASILISK,-17.67083359,145.9950104,QLD ,
BASIN POCKET,-27.601389,152.770279,QLD ,
BASIN VIEW,-35.08833,150.55535,GA ,
BASS,-38.4780705,145.4725079,VIC ,
BATCHA,-17.46666667,144.9333333,QLD ,
BATCHELOR,-13.05046,131.03072,GA ,
BATCHICA,-36.18625,142.3981944,VIC ,
BATEMANS BAY,-35.70658,150.17541,GA ,
BATESFORD,-38.0835973,144.2648926,VIC ,
BATESFORD,-38.08843,144.27403,GA ,
BATESFORD,-38.0987236,144.291958,VIC ,
BATHUMI,-36.025329,146.085165,VIC ,
BATHURST,-33.41736,149.58129,GA ,
BATLOW,-35.519711,148.1452775,GA ,
BATMAN,-37.7318056,144.9584722,VIC ,
BATTERY HILL,-26.77916718,153.1291656,QLD ,
BATTLE CAMP,-15.28333333,144.7,QLD ,
BAUHINIA,-24.54194,149.27833,QLD ,
BAUHINIA,-24.56841854,149.2930457,QLD ,
BAULKAMAUGH NORTH,-35.9970833,145.3859722,VIC ,
BAUPLE FOREST,-25.883055,152.688049,QLD ,
BAUPLE,-25.813889,152.621948,QLD ,
BAUPLE,-25.814444,152.622223,QLD ,
BAW BAW ALPINE VILLAGE,-37.8398611,146.2648611,VIC ,
BAW BAW VILLAGE,-37.8415502,146.25745,VIC ,
BAW BAW,-37.8376466,146.3008485,VIC ,
BAWLEY POINT,-35.50778,150.38922,GA ,
BAXTER,-38.1978326,145.1531001,VIC ,
BAYINDEEN,-37.3032095,143.1828645,VIC ,
BAYLES,-38.177226,145.5844915,VIC ,
BAYNTON EAST,-37.1229165,144.7131825,VIC ,
BAYNTON,-37.1377852,144.6328661,VIC ,
BAYRICK,-25.40361,146.073334,QLD ,
BAYSWATER NORTH,-37.8255944,145.28218,VIC ,
BAYSWATER,-37.8463091,145.2627765,VIC ,
BAYULU,-18.29996,125.59574,GA ,
BAYVIEW HEIGHTS,-16.96444511,145.7247162,QLD ,
BEACH HOLM,-19.20639038,146.6491699,QLD ,
BEACHCOMBER ESTATE,-38.4998611,145.2534722,VIC ,
BEACHMERE,-27.10833359,153.0486145,QLD ,
BEACHMERE,-27.128654,153.0498225,GA ,
BEACHMERE,-27.12951554,153.0538432,QLD ,
BEACHPORT,-37.4805725,140.012419,GA ,
BEACHTON,-23.48889,150.97889,QLD ,
BEACONSFIELD UPPER,-37.99415,145.4142,GA ,
BEACONSFIELD UPPER,-37.998539,145.4247786,VIC ,
BEACONSFIELD,-16.96666667,145.1166667,QLD ,
BEACONSFIELD,-21.08889,149.166946,QLD ,
BEACONSFIELD,-38.0372806,145.3815978,VIC ,
BEACONSFIELD,-38.0557982,145.3658998,VIC ,
BEACONSFIELD,-41.20227,146.81723,GA ,
BEAGLE BAY,-16.9809,122.66748,GA ,
BEAGLEYS BRIDGE,-37.8779167,145.3740278,VIC ,
BEALIBA,-36.7270662,143.5580242,VIC ,
BEALIBA,-36.780137,143.5616637,VIC ,
BEALLAH,-21.05,148.9166667,QLD ,
BEARDMORE,-27.76666667,149.85,QLD ,
BEARDMORE,-37.8290278,146.4181944,VIC ,
BEARDMORES,-37.8290278,146.4181944,VIC ,
BEARII,-35.8828581,145.3470378,VIC ,
BEARS LAGOON,-36.338224,143.9482655,VIC ,
BEATRICE,-17.56222153,145.5844421,QLD ,
BEAUCHAMP,-35.5573423,143.5906906,VIC ,
BEAUCHAMP,-35.6363116,143.6408604,VIC ,
BEAUDESERT,-27.98812578,152.9957915,QLD ,
BEAUDESERT,-27.98822,152.995841,GA ,
BEAUDESERT,-27.989166,152.989166,QLD ,
BEAUFORT (WILLOBY STREET CARPARK) NEIGHBOURHOOD SAFER PLACE,-37.4289512,143.3824665,VIC ,
BEAUFORT (WOTHERSPOON PARK) NEIGHBOURHOOD SAFER PLACE,-37.430957,143.383279,VIC ,
BEAUFORT,-23.456667,146.850845,QLD ,
BEAUFORT,-37.42996,143.38347,GA ,
BEAUFORT,-37.4404024,143.33452,VIC ,
BEAUMARIS,-37.9836154,145.0390155,VIC ,
BEAUTY POINT,-36.3798,150.07126,GA ,
BEAUTY POINT,-41.15663,146.82107,GA ,
BEAVER ROCK,-25.508055,152.826111,QLD ,
BEAZLEYS BRIDGE,-36.7085637,143.1554592,VIC ,
BEDOURIE,-24.35932653,139.4692669,QLD ,
BEDOURIE,-24.43154708,139.4389952,QLD ,
BEE RAN,-19.1,146.8666667,QLD ,
BEEAC,-38.1784521,143.6648321,VIC ,
BEEAC,-38.1938,143.64126,GA ,
BEEBO,-28.68278,150.99306,QLD ,
BEECH FOREST,-38.6341151,143.5865175,VIC ,
BEECHER,-23.91111,151.204712,QLD ,
BEECHMONT,-28.10784694,153.2132879,QLD ,
BEECHMONT,-28.125555,153.193329,QLD ,
BEECHWOOD,-31.43646,152.67678,GA ,
BEECHWORTH (MEMORIAL HALL) NEIGHBOURHOOD SAFER PLACE,-36.358531,146.687708,VIC ,
BEECHWORTH (POLICE PADDOCKS) NEIGHBOURHOOD SAFER PLACE,-36.359167,146.688943,VIC ,
BEECHWORTH,-36.3339167,146.6599721,VIC ,
BEECHWORTH,-36.3594935,146.687046,GA ,
BEELBANGERA,-34.254166,146.101883,GA ,
BEELBEE,-27.13306,150.82139,QLD ,
BEELBI CREEK,-25.289999,152.644165,QLD ,
BEENAAM RANGE,-26.21666667,152.8,QLD ,
BEENAAM VALLEY,-26.1902771,152.8152771,QLD ,
BEENAK,-37.9010675,145.6376789,VIC ,
BEENLEIGH,-27.71333504,153.1938934,QLD ,
BEENLEIGH,-27.716112,153.202225,QLD ,
BEERBURRUM,-26.95194435,152.9724884,QLD ,
BEERBURRUM,-26.95896157,152.9571631,QLD ,
BEERBURRUM,-26.960106,152.955147,GA ,
BEEREENBANO LOOKOUT,-28.251147,153.19343,QLD ,
BEERON,-25.9011116,151.2774963,QLD ,
BEERWAH,-26.85722351,152.9597168,QLD ,
BEERWAH,-26.858332,152.961379,GA ,
BEERWAH,-26.85840668,152.9588412,QLD ,
BEES CREEK,-12.56118,131.05905,GA ,
BEETOOMBA,-36.2368056,147.6479167,VIC ,
BEGA,-36.67392,149.84178,GA ,
BEGONIA,-27.46028,148.27417,QLD ,
BEILBA,-25.65139,148.85,QLD ,
BELCONG,-23.02361,148.18889,QLD ,
BELGIAN GARDENS,-19.24916649,146.7919464,QLD ,
BELGRAVE (RECREATION RESERVE) NEIGHBOURHOOD SAFER PLACE,-37.91568,145.344829,VIC ,
BELGRAVE HEIGHTS,-37.9260305,145.3436557,VIC ,
BELGRAVE SOUTH,-37.9417835,145.3565753,VIC ,
BELGRAVE,-37.912067,145.3557975,VIC ,
BELIMBLA PARK,-34.07635,150.54272,GA ,
BELIVAH,-27.75861168,153.1750031,QLD ,
BELL BIRD LOOKOUT,-28.195872,153.191593,QLD ,
BELL PARK,-38.1059068,144.3382795,VIC ,
BELL POST HILL,-38.0954858,144.3242734,VIC ,
BELL,-26.91639,151.43806,QLD ,
BELL,-26.932119,151.449848,GA ,
BELL,-26.93341578,151.4521975,QLD ,
BELL,-37.7451389,145.0001389,VIC ,
BELLA CREEK,-26.47778,152.56111,QLD ,
BELLAMYS CORNER,-36.6340278,145.0115278,VIC ,
BELLARA,-27.05944443,153.1483307,QLD ,
BELLARINE,-38.1321106,144.6197572,VIC ,
BELLARINGA LOOKOUT,-28.224105,153.273484,QLD ,
BELLBIRD CORNER,-37.9379167,146.9590278,VIC ,
BELLBIRD CREEK,-37.6364543,148.815665,VIC ,
BELLBIRD PARK,-27.636944,152.888046,QLD ,
BELLBIRD,-32.85992,151.31872,GA ,
BELLBOWRIE,-27.55895905,152.8824629,QLD ,
BELLBRAE,-38.341685,144.2369376,VIC ,
BELLBRIDGE,-36.096042,147.0607539,VIC ,
BELLBRIDGE,-36.0981075,147.0606335,GA ,
BELLELLEN,-37.1339921,142.6921773,VIC ,
BELLENDEN KER,-17.26123997,145.9252809,QLD ,
BELLENDEN KER,-17.275555,145.927231,QLD ,
BELLEVUE,-16.64638901,144.2624969,QLD ,
BELLEVUE,-37.7831944,145.07625,VIC ,
BELLFIELD SETTLEMENT,-37.1743056,142.53875,VIC ,
BELLFIELD,-19.30583191,143.1849976,QLD ,
BELLFIELD,-37.2212754,142.4889544,VIC ,
BELLFIELD,-37.2757135,142.4439062,VIC ,
BELLFIELD,-37.7529868,145.0383484,VIC ,
BELLI PARK,-26.51694,152.81694,QLD ,
BELLINGEN,-30.45294,152.89911,GA ,
BELLMERE,-27.08139038,152.9030457,QLD ,
BELLS BEACH,-38.377001,144.260843,VIC ,
BELLS BRIDGE,-26.119444,152.536118,QLD ,
BELLS CREEK,-26.81805611,153.0619507,QLD ,
BELLS PINCH,-27.15,152.2333333,QLD ,
BELLTHORPE WEST,-26.823062,152.679471,QLD ,
BELLTHORPE,-26.85750008,152.7233276,QLD ,
BELMONT,-27.50590324,153.1352386,QLD ,
BELMONT,-38.1800294,144.3428175,VIC ,
BELMUNDA,-20.94972,149.031662,QLD ,
BELVEDERE,-17.5189305,145.9875145,GA ,
BELVEDERE,-17.52499962,145.9861145,QLD ,
BELYANDO CROSSING,-21.53399636,146.8630699,QLD ,
BELYANDO,-21.85056,146.60611,QLD ,
BEMBOKA,-36.6289,149.57181,GA ,
BEMERSIDE,-18.557344,146.192505,QLD ,
BEMM RIVER (HOTEL) NEIGHBOURHOOD SAFER PLACE,-37.760193,148.9689609,VIC ,
BEMM RIVER,-37.7163672,148.9283176,VIC ,
BEN NEVIS,-37.2320833,143.2198611,VIC ,
BENA,-38.427909,145.7478422,VIC ,
BENAIR,-26.62333298,151.6983337,QLD ,
BENALLA,-36.5517925,145.983386,GA ,
BENALLA,-36.571109,146.006804,VIC ,
BENAMBRA (OVAL) NEIGHBOURHOOD SAFER PLACE,-36.9439352,147.6998049,VIC ,
BENAMBRA,-36.8883002,147.7947938,VIC ,
BENARABY,-24.00203179,151.316618,QLD ,
BENARABY,-24.002087,151.3168155,GA ,
BENARABY,-24.045555,151.306946,QLD ,
BENARKIN NORTH,-26.85527802,152.1497192,QLD ,
BENARKIN,-26.88583374,152.1386108,QLD ,
BENARKIN,-26.88611,152.137222,QLD ,
BENAYEO,-36.8431961,141.0458456,VIC ,
BEND OF ISLANDS,-37.6980126,145.2806619,VIC ,
BENDEMEER,-30.8861375,151.1543995,GA ,
BENDIGO (QUEEN ELIZABETH OVAL) NEIGHBOURHOOD SAFER PLACE,-36.7556328,144.2758185,VIC ,
BENDIGO,-36.7561799,144.280152,VIC ,
BENDIGO,-36.75818,144.28025,GA ,
BENDOC (HALL CAR PARK) NEIGHBOURHOOD SAFER PLACE,-37.1471501,148.8851252,VIC ,
BENDOC NORTH,-37.11125,148.9709722,VIC ,
BENDOC UPPER,-37.1301389,149.0140278,VIC ,
BENDOC,-37.1909713,148.8800407,VIC ,
BENDOCK NORTH,-37.11125,148.9709722,VIC ,
BENDOCK UPPER,-37.1301389,149.0140278,VIC ,
BENETOOK,-34.3573611,141.9973611,VIC ,
BENGWORDEN,-37.9744323,147.4448271,VIC ,
BENHOLME,-21.161943,148.803055,QLD ,
BENJAMIN FLATS,-18.43333333,146.1833333,QLD ,
BENJEROOP,-35.4968881,143.8299554,VIC ,
BENLOCH,-37.2019839,144.6708426,VIC ,
BENNETSWOOD,-37.8479167,145.1145833,VIC ,
BENNIE,-36.9615278,146.5384722,VIC ,
BENNIES,-36.9615278,146.5384722,VIC ,
BENNISON,-38.6630011,146.2679892,VIC ,
BENOBBLE,-27.990833,153.161102,QLD ,
BENOWA,-28.00833321,153.3872223,QLD ,
BENSVILLE,-33.498584,151.381101,GA ,
BENTLEIGH EAST,-37.9222457,145.0669592,VIC ,
BENTLEIGH,-37.9227688,145.037411,VIC ,
BENTLEY PARK,-17.01083374,145.723053,QLD ,
BENWERRIN,-38.4841056,143.9091978,VIC ,
BERAJONDO,-24.630556,151.815277,QLD ,
BERAT,-28.0447216,152.0608368,QLD ,
BERDAJE,-19.75,147.4666667,QLD ,
BEREMBOKE,-37.787848,144.2262625,VIC ,
BERGEN,-27.24,151.92083,QLD ,
BERGINS HILL,-27.615,152.809448,QLD ,
BERMAGUI,-36.419,150.06356,GA ,
BERRARA,-35.20151,150.55296,GA ,
BERREMBEA,-25.03333333,152.0333333,QLD ,
BERRI,-34.28107,140.59958,GA ,
BERRIDALE,-36.36565,148.82677,GA ,
BERRIGAN,-35.6574215,145.8116775,GA ,
BERRIMA,-34.488577,150.336121,GA ,
BERRIMAL,-36.4980763,143.467264,VIC ,
BERRINBA (LOGAN CITY),-27.655556,153.077774,QLD ,
BERRINBA,-38.1770833,145.9290278,VIC ,
BERRINGA,-37.7713596,143.676833,VIC ,
BERRINGAMA,-36.1981048,147.6666127,VIC ,
BERRIWERRI,-21.13333333,148.7333333,QLD ,
BERRIWILLOCK,-35.6443575,142.969845,VIC ,
BERROOK,-34.9384722,141.0451389,VIC ,
BERRY,-34.77579,150.698878,GA ,
BERRYBANK,-37.9369951,143.5075024,VIC ,
BERRYBANK,-37.97496,143.4933186,VIC ,
BERRYS CREEK,-38.4127945,146.0662015,VIC ,
BERSERKER,-23.365278,150.527771,QLD ,
BERWICK,-38.0420973,145.3486427,VIC ,
BESSIEBELLE,-38.1308439,141.8605018,VIC ,
BESSIEBELLE,-38.1561297,141.9387455,VIC ,
BEST OF ALL LOOKOUT,-28.242259,153.264904,QLD ,
BESWICK,-14.56019,133.11137,GA ,
BET BET,-36.9233775,143.7506341,VIC ,
BETE BOLONG NORTH,-37.5958336,148.2932508,VIC ,
BETE BOLONG,-37.6879414,148.3155437,VIC ,
BETHANGA,-36.1249515,147.0985935,GA ,
BETHANGA,-36.1451318,147.104397,VIC ,
BETHANIA,-27.68694,153.1575,QLD ,
BETHCAR,-28.46666667,151.0333333,QLD ,
BETLEY,-36.9180863,143.795001,VIC ,
BETOOTA,-25.69444,140.74417,QLD ,
BEULAH EAST,-35.9315278,142.5120833,VIC ,
BEULAH WEST,-35.9334722,142.2795833,VIC ,
BEULAH,-35.9147698,142.3948062,VIC ,
BEULAH,-35.93777,142.42219,GA ,
BEVERFORD,-35.2221509,143.4635675,VIC ,
BEVERIDGE,-37.4725904,144.9470306,VIC ,
BEVERIDGE,-37.4782413,145.0212119,VIC ,
BEVERLEY,-32.10896,116.9228,GA ,
BEYAL,-36.0970833,142.6843056,VIC ,
BIARRA,-27.19861031,152.3344421,QLD ,
BIBOOHRA,-16.85305595,145.4211121,QLD ,
BIBOOHRA,-16.915556,145.419724,QLD ,
BICHENO,-41.87588,148.30452,GA ,
BIDDADDABA,-27.995277,153.108612,QLD ,
BIDDESTON,-27.570278,151.715546,QLD ,
BIDDESTON,-27.57083,151.75139,QLD ,
BIDGEROO,-17.939444,146.163879,QLD ,
BIDWILL,-25.585835,152.719437,QLD ,
BIDYADANGA COMMUNITY (LAGRANGE),-18.68366,121.77889,GA ,
BIG CORD,-37.3115278,142.3690278,VIC ,
BIG DESERT,-35.4768113,141.4053993,VIC ,
BIG DESERT,-35.73152,141.6718325,VIC ,
BIG DESERT,-35.8110601,141.175636,VIC ,
BIG FIGHTING CAMP,-25.28333333,151.3833333,QLD ,
BIG HILL CREEK,-38.4970833,144.0090278,VIC ,
BIG HILL,-36.8346851,144.230004,VIC ,
BIG HILL,-38.480172,144.0049374,VIC ,
BIG PATS CREEK,-37.7638003,145.7612356,VIC ,
BIGGARA,-36.3628277,148.0060887,VIC ,
BIGGENDEN,-25.5092315,152.0438685,GA ,
BIGGENDEN,-25.51147102,152.0460763,QLD ,
BIGGENDEN,-25.56083,152.00944,QLD ,
BIGGERA WATERS,-27.93083191,153.3961029,QLD ,
BIGRIGGAN,-28.2,152.7833333,QLD ,
BILBROUGH LOOKOUT,-28.234216,153.290141,QLD ,
BILBUL,-34.273459,146.138204,GA ,
BILINGA,-28.1613884,153.508606,QLD ,
BILLA BILLA,-28.15583,150.28028,QLD ,
BILLABONG,-37.2514885,146.80983,VIC ,
BILOELA,-24.40035851,150.5133003,QLD ,
BILOELA,-24.40063722,150.515803,QLD ,
BILOELA,-24.40216,150.51299,GA ,
BILYANA,-18.11722183,145.9622192,QLD ,
BIMBOOLBA LOOKOUT,-28.150399,153.161171,QLD ,
BIMBOURIE,-35.3356128,142.7615627,VIC ,
BINALONG BAY,-41.24899,148.31215,GA ,
BINALONG,-34.6745445,148.631647,GA ,
BINDAREE,-24.38333333,149.8666667,QLD ,
BINDEBANGO,-27.63944,147.38806,QLD ,
BINDI,-37.119675,147.8451765,VIC ,
BINDLE,-27.65,148.7333333,QLD ,
BINDOON,-31.38221,116.09448,GA ,
BINGARA,-29.8687425,150.5718075,GA ,
BINGEGANG,-23.11778,149.1575,QLD ,
BINGERA SOUTH,-25,152.1833333,QLD ,
BINGERA,-24.9,152.2,QLD ,
BINGIL BAY,-17.82777786,146.0908356,QLD ,
BINGIL BAY,-17.8309815,146.0997265,GA ,
BINGIL BAY,-17.83179504,146.0969289,QLD ,
BINGINWARRI,-38.5787831,146.449202,VIC ,
BINGINWARRI,-38.6116128,146.4402878,VIC ,
BINGO MUNJIE NORTH,-37.0115278,147.5915278,VIC ,
BINGO MUNJIE,-37.007873,147.5646611,VIC ,
BINJOUR,-25.534445,151.469162,QLD ,
BINNA BURRA,-28.203056,153.18222,QLD ,
BINNAWAY,-31.5523695,149.3786855,GA ,
BINNINGUP,-33.1483,115.69519,GA ,
BINNS HILL JUNCTION,-38.4431944,146.4809722,VIC ,
BINNS,-37.8243056,146.5284722,VIC ,
BIRCHIP WEST,-36.0138415,142.8218405,VIC ,
BIRCHIP,-35.9838,142.91725,GA ,
BIRCHIP,-35.9973335,142.9254895,VIC ,
BIRDSVILLE,-24.98639,138.26194,QLD ,
BIRDSVILLE,-25.89861,139.35139,QLD ,
BIRDWOOD,-34.81826,138.96479,GA ,
BIRDWOODTON,-34.198208,142.0677145,VIC ,
BIRIGABA,-19.348612,146.857224,QLD ,
BIRIMGAN,-22.7,147.4666667,QLD ,
BIRKALLA,-17.91361046,145.9488831,QLD ,
BIRKDALE,-27.50028,153.21111,QLD ,
BIRKENHEAD,-23.78333333,151.2333333,QLD ,
BIRNAM (SCENIC RIM REGIONAL COUNCIL),-27.94861,153.061676,QLD ,
BIRNAM (TOOWOOMBA REGIONAL),-27.49278,151.92417,QLD ,
BIRNAM,-24.71666667,151.2166667,QLD ,
BIRREGURRA,-38.3330036,143.8959222,VIC ,
BIRREGURRA,-38.3354182,143.8050306,VIC ,
BIRREGURRA,-38.33681,143.78473,GA ,
BIRRU,-27.595183,152.580633,QLD ,
BIRTHAMBA,-24.91666667,152.1833333,QLD ,
BIRTINYA,-26.74527741,153.1158447,QLD ,
BISMARK,-36.7615278,142.7848611,VIC ,
BITTERN,-38.3384143,145.1751433,VIC ,
BLACK DIAMOND,-37.9329167,146.4368056,VIC ,
BLACK DUCK CREEK,-27.89666748,152.2202759,QLD ,
BLACK HILL,-37.549978,143.8726365,VIC ,
BLACK JACK,-20.168888,146.152222,QLD ,
BLACK MOUNTAIN,-26.41944313,152.8541718,QLD ,
BLACK RANGE,-37.123441,142.7675341,VIC ,
BLACK RANGE,-37.1634106,142.7550656,VIC ,
BLACK RIVER,-19.24156,146.629572,GA ,
BLACK RIVER,-19.26166725,146.5986023,QLD ,
BLACK ROCK,-37.9706564,145.0212822,VIC ,
BLACK SNAKE CREEK,-37.4465278,147.1415278,VIC ,
BLACK SNAKE,-26.185833,152.276108,QLD ,
BLACK SPRINGS,-36.3751389,146.6356944,VIC ,
BLACK SPRINGS,-37.7584722,145.3179167,VIC ,
BLACK-ALLAN LINE,-37.5054167,149.9765278,VIC ,
BLACKALL,-24.423901,145.46334,GA ,
BLACKALL,-24.42456107,145.4658791,QLD ,
BLACKALL,-24.591389,145.402496,QLD ,
BLACKBERRY CORNER,-38.4520833,144.9843056,VIC ,
BLACKBULL,-17.80570605,141.7447749,QLD ,
BLACKBURN NORTH,-37.8046628,145.1550668,VIC ,
BLACKBURN SOUTH,-37.839259,145.146621,VIC ,
BLACKBURN,-37.8215475,145.1520306,VIC ,
BLACKBUTT NORTH,-26.86499977,152.1150055,QLD ,
BLACKBUTT SOUTH,-26.9066658,152.0830536,QLD ,
BLACKBUTT SPRINGS,-18.35,142.4166667,QLD ,
BLACKBUTT,-26.885246,152.101195,GA ,
BLACKBUTT,-26.88563406,152.1030198,QLD ,
BLACKBUTT,-26.88583374,152.1052856,QLD ,
BLACKDOWN,-23.89306,149.12611,QLD ,
BLACKHEATH,-33.63259,150.28634,GA ,
BLACKHEATH,-36.4728584,142.2861685,VIC ,
BLACKMANS BAY,-43.00849,147.3167,GA ,
BLACKMOUNT,-25.7,152.5833333,QLD ,
BLACKROCK,-18.70651245,146.2086182,QLD ,
BLACKS BEACH,-21.054455,149.1893705,GA ,
BLACKS BEACH,-21.06278,149.18778,QLD ,
BLACKSOIL,-27.577778,152.70639,QLD ,
BLACKSTONE,-27.63306,152.8075,QLD ,
BLACKSWAMP,-26.57667,150.52667,QLD ,
BLACKWALL,-27.541572,152.77054,QLD ,
BLACKWALL,-41.30214,146.96898,GA ,
BLACKWARRY,-38.412878,146.6306991,VIC ,
BLACKWATER,-23.47611,148.77972,QLD ,
BLACKWATER,-23.57593005,148.8869335,QLD ,
BLACKWATER,-23.58351,148.87912,GA ,
BLACKWOOD FOREST,-38.49125,145.6206944,VIC ,
BLACKWOOD,-37.47217,144.30534,GA ,
BLACKWOOD,-37.4835313,144.2930188,VIC ,
BLAIR ATHOL,-22.69705224,147.5455574,QLD ,
BLAIRGOWRIE (SHOPS CAR PARK) NEIGHBOURHOOD SAFER PLACE,-38.3611482,144.7794442,VIC ,
BLAIRGOWRIE,-38.3707085,144.7697995,VIC ,
BLAIRMORE,-25.809444,151.917786,QLD ,
BLAKEVILLE,-37.4775121,144.210418,VIC ,
BLAMPIED,-37.3514143,144.0246405,VIC ,
BLANCHETOWN,-34.35313,139.61449,GA ,
BLANCHVIEW,-27.57666779,152.0308228,QLD ,
BLANTYRE,-27.90138817,152.6775055,QLD ,
BLAXLAND,-27.21861,151.40028,QLD ,
BLAYNEY,-33.5295,149.24953,GA ,
BLEAK HOUSE,-36.2693056,141.4598611,VIC ,
BLENHEIM,-27.65583229,152.317215,QLD ,
BLI BLI,-26.616871,153.036209,GA ,
BLI BLI,-26.61778,153.03722,QLD ,
BLI BLI,-26.61868249,153.037726,QLD ,
BLIND BIGHT (KESTRAL CLOSE & PETREL CLOSE) NEIGHBOURHOOD SAFER PLACE,-38.214763,145.3357428,VIC ,
BLIND BIGHT,-38.2122139,145.3393167,VIC ,
BLIND BIGHT,-38.2131,145.3336,GA ,
BLOMFORD,-37.6323611,147.05125,VIC ,
BLOOMFIELD (CAIRNS REGIONAL COUNCIL),-16.02778,145.24694,QLD ,
BLOOMFIELD (COOK SHIRE),-15.85222244,145.3280487,QLD ,
BLOOMFIELD,-15.9333334,145.3416595,QLD ,
BLOOMSBURY,-20.70621855,148.5947004,QLD ,
BLOOMSBURY,-20.72028,148.53278,QLD ,
BLORE,-37.8248611,146.7806944,VIC ,
BLOWHARD JUNCTION,-37.4943056,145.4909722,VIC ,
BLOWHARD,-37.4324248,143.7868045,VIC ,
BLUE HILLS,-19.24916649,146.4958344,QLD ,
BLUE JACKET,-37.6654167,146.3095833,VIC ,
BLUE LAGOON,-25.86666667,148.55,QLD ,
BLUE MOUNTAIN HEIGHTS,-27.4975,151.95667,QLD ,
BLUE MOUNTAIN HEIGHTS,-27.5052735,151.955884,GA ,
BLUE MOUNTAIN,-21.457779,148.998062,QLD ,
BLUEWATER BEACH,-19.15067532,146.5988841,QLD ,
BLUEWATER PARK,-19.19610977,146.484726,QLD ,
BLUEWATER PARK,-19.211028,146.510972,GA ,
BLUEWATER,-19.16166687,146.5336151,QLD ,
BLUEWATER,-19.162591,146.569427,GA ,
BLUEWATER,-19.17706348,146.5558247,QLD ,
BLUFF,-23.49444,149.05667,QLD ,
BLUFF,-23.57981788,149.0705402,QLD ,
BLUFF,-23.58052,149.0685,GA ,
BLYTH,-33.84858,138.48931,GA ,
BLYTHDALE,-26.52611,149.00111,QLD ,
BLYTHDALE,-26.57954276,148.9533473,QLD ,
BO PEEP,-37.5350564,143.677189,VIC ,
BO PEEP,-37.5517299,143.6563199,VIC ,
BOAGA,-24.54869451,152.0510604,QLD ,
BOAMBEE,-30.33543,153.07118,GA ,
BOAR POCKET,-17.2,145.6166667,QLD ,
BOAT HARBOUR,-32.78955,152.10905,GA ,
BOATMAN,-27.11344147,146.8461609,QLD ,
BOBINAWARRAH,-36.5353075,146.4858775,VIC ,
BOCHARA,-37.6886986,141.8993795,VIC ,
BODALLA,-36.09118,150.05062,GA ,
BODDINGTON,-32.80071,116.47522,GA ,
BOGANDILLA,-26.48306,149.77028,QLD ,
BOGANGAR,-28.32944,153.5686,GA ,
BOGANTUNGAN,-23.64788583,147.2919697,QLD ,
BOGGABILLA,-28.6052975,150.360428,GA ,
BOGGABRI,-30.70953,150.04122,GA ,
BOGGY CORNER,-37.1363889,146.4530556,VIC ,
BOGGY CREEK,-37.6770833,147.5490278,VIC ,
BOGIE,-20.30944,147.87944,QLD ,
BOGONG,-36.7970071,147.2239164,VIC ,
BOHLE PLAINS,-19.29527664,146.6741791,QLD ,
BOHLE PLAINS,-19.320447,146.639491,GA ,
BOHLE,-19.24583435,146.7210999,QLD ,
BOHO SOUTH,-36.7725839,145.8362565,VIC ,
BOHO SOUTH,-36.7757743,145.7997785,VIC ,
BOHO,-36.6691985,145.7842293,VIC ,
BOIGBEAT,-35.5624545,142.94327,VIC ,
BOIGU ISLAND,-9.259444,142.212769,QLD ,
BOIGU,-9.2307,142.22173,GA ,
BOIGU,-9.23240661,142.2186096,QLD ,
BOINKA,-35.1576062,141.567111,VIC ,
BOISDALE,-37.8491714,146.941383,VIC ,
BOKARINA,-26.73888969,153.1294403,QLD ,
BOLANGUM,-36.7224248,142.9872819,VIC ,
BOLDON,-21.15,148.9166667,QLD ,
BOLINDA,-37.438182,144.7725738,VIC ,
BOLLIER,-26.45833,152.73056,QLD ,
BOLLON,-28.03315972,147.4800417,QLD ,
BOLLON,-28.26732826,147.3181,QLD ,
BOLTON,-34.961576,142.9332265,VIC ,
BOLTONS SADDLE,-17.91666667,146.0833333,QLD ,
BOLTONS,-34.9970833,140.9684722,VIC ,
BOLWARRA,-17.46666718,144.0099945,QLD ,
BOLWARRA,-38.2807243,141.6110033,VIC ,
BOLWARRAH,-37.509024,144.1113125,VIC ,
BOMADERRY,-34.84967,150.61071,GA ,
BOMBALA,-36.90873,149.23903,GA ,
BOMBEETA,-17.6930542,145.96138,QLD ,
BON ACCORD,-25.564999,151.671951,QLD ,
BONA VISTA,-38.2067159,145.964873,VIC ,
BONALBO,-28.73709,152.62391,GA ,
BONANG (HALL GROUNDS) NEIGHBOURHOOD SAFER PLACE,-37.1721006,148.722384,VIC ,
BONANG,-37.1433885,148.6530656,VIC ,
BONATABA,-17.11666667,145.2666667,QLD ,
BONAVISTA,-20.381666,148.651108,QLD ,
BONBEACH,-38.0629638,145.1278818,VIC ,
BONDOOLA,-23.18611,150.685562,QLD ,
BONEGILLA,-36.1444395,146.9922953,VIC ,
BONEO,-38.408407,144.9056939,VIC ,
BONGAREE,-27.08139038,153.1636047,QLD ,
BONGAREE,-27.085472,153.159518,GA ,
BONGEEN,-27.52,151.45333,QLD ,
BONGMOLLOW,-25.8,152.55,QLD ,
BONGWARRA,-25.9,148.55,QLD ,
BONN,-36.4131045,144.7181934,VIC ,
BONNELLS BAY,-33.10973,151.53226,GA ,
BONNIE BRAE,-38.62125,146.2418056,VIC ,
BONNIE DOON (PEPPIN POINT HOLIDAY PARK TENNIS COURT/SWIMMING POOL AREA) NEIGHBOURHOOD SAFER PLACE,-37.0766667,145.8622222,VIC ,
BONNIE DOON,-16.46333504,145.39888,QLD ,
BONNIE DOON,-23.5,148.8166667,QLD ,
BONNIE DOON,-36.9237902,145.9214283,VIC ,
BONNIE DOON,-37.0141055,145.8823865,VIC ,
BONNIE VIEW,-37.0681944,145.8506944,VIC ,
BONNY BRAE,-38.62125,146.2418056,VIC ,
BONNY HILLS,-31.59061,152.83908,GA ,
BONOGIN,-28.13527679,153.3583374,QLD ,
BONSHAW,-29.00611,151.3275,QLD ,
BONSHAW,-37.6037605,143.8137764,VIC ,
BONVILLE,-30.37599,153.03502,GA ,
BONY MOUNTAIN,-28.10056,151.8425,QLD ,
BONYUMBA,-27.16666667,151.2833333,QLD ,
BOO-GAROO,-17.96611214,146.1727753,QLD ,
BOODUA,-27.37778,151.82667,QLD ,
BOOGAN,-17.60861206,146.0119476,QLD ,
BOOGARGAN,-23.81666667,150.3166667,QLD ,
BOOIE,-26.53333283,151.9333344,QLD ,
BOOINBAH,-26.05,152.0833333,QLD ,
BOOJERAHLA LOOKOUT,-28.222809,153.285917,QLD ,
BOOKAAR,-38.1106133,143.1101665,VIC ,
BOOLA,-38.0509479,146.4625678,VIC ,
BOOLA,-38.1049528,146.4626601,VIC ,
BOOLAMOOLA LOOKOUT,-28.265,153.17306,QLD ,
BOOLANGALLA,-19.55,146.3666667,QLD ,
BOOLARONG,-38.56548,146.256132,VIC ,
BOOLARRA (MEMORIAL HALL) NEIGHBOURHOOD SAFER PLACE,-38.378566,146.274581,VIC ,
BOOLARRA SOUTH,-38.447058,146.2307017,VIC ,
BOOLARRA SOUTH,-38.4477385,146.2975149,VIC ,
BOOLARRA,-38.37937,146.27527,GA ,
BOOLARRA,-38.3806442,146.2790838,VIC ,
BOOLARRA,-38.386923,146.2304578,VIC ,
BOOLBA,-27.96666667,148.1,QLD ,
BOOLBOONDA,-25.05944,151.69,QLD ,
BOOLBURRA,-23.68472,149.86694,QLD ,
BOOLBURRA,-23.73536536,149.7827504,QLD ,
BOOLE POOLE,-37.8816616,147.7899048,VIC ,
BOOLEE,-27.429443,151.703613,QLD ,
BOOLEROO CENTRE,-32.88172,138.35082,GA ,
BOOLITE,-36.3422475,142.6816731,VIC ,
BOOMAHNOOMOONAH,-36.124153,146.0990954,VIC ,
BOOMERANG,-25.61666667,151.4333333,QLD ,
BOOMPA,-25.635,152.14278,QLD ,
BOONAH,-27.991667,152.684448,QLD ,
BOONAH,-27.997229,152.681533,GA ,
BOONAH,-27.99979415,152.6816337,QLD ,
BOONAH,-38.4256363,143.9798086,VIC ,
BOONARA,-26.07889,152.026108,QLD ,
BOONARGA,-26.80944,150.72028,QLD ,
BOONDALL,-27.34646073,153.0705076,QLD ,
BOONDANDILLA,-27.90889,150.61111,QLD ,
BOONDILLA,-24.21666667,151.4333333,QLD ,
BOONDOOMA,-26.1566658,151.2177734,QLD ,
BOONENNE,-26.61666667,151.8,QLD ,
BOONGANA,-21.15,148.5833333,QLD ,
BOONGARY,-23.51666667,150.4166667,QLD ,
BOONOOROO PLAINS,-25.58306,152.815,QLD ,
BOONOOROO,-25.65528,152.89694,QLD ,
BOONOOROO,-25.66651,152.90214,GA ,
BOONOOROO,-25.668333,152.901932,QLD ,
BOONYOUIN,-26.7,151.7166667,QLD ,
BOORA-MUGGA,-27.56666667,151.5833333,QLD ,
BOORAL,-25.35389,152.89,QLD ,
BOORAL,-25.361091,152.907729,GA ,
BOORAN,-27.63451313,153.1038497,QLD ,
BOORANGIE NORTH,-35.0693056,142.3831944,VIC ,
BOORANGIE,-35.0915278,142.4165278,VIC ,
BOORCAN,-38.2221233,143.0182225,VIC ,
BOORHAMAN EAST,-36.1626128,146.3343979,VIC ,
BOORHAMAN NORTH,-36.1029118,146.245559,VIC ,
BOORHAMAN,-36.2291621,146.318686,VIC ,
BOORI,-20.01666667,146.7666667,QLD ,
BOOROLITE,-37.1595872,146.204582,VIC ,
BOORONGIE NORTH,-35.0693056,142.3831944,VIC ,
BOORONGIE,-35.0915278,142.4165278,VIC ,
BOOROOBIN (MORETON BAY REGIONAL),-26.82194,152.77583,QLD ,
BOOROOBIN (SUNSHINE COAST REGIONAL),-26.8125,152.80028,QLD ,
BOOROOL,-38.4525483,146.0505044,VIC ,
BOOROOPKI,-36.7729167,141.2365278,VIC ,
BOOROWA,-34.4365215,148.7166995,GA ,
BOORT (FOOTBALL CLUB AND HARNESS RACING OVAL) NEIGHBOURHOOD SAFER PLACE,-36.1090439,143.7305841,VIC ,
BOORT EAST,-36.1384722,143.8351389,VIC ,
BOORT WEST,-36.1193056,143.6079167,VIC ,
BOORT,-36.11571,143.71991,GA ,
BOORT,-36.1235835,143.7514885,VIC ,
BOOSEY,-36.0508634,145.7953644,VIC ,
BOOTHARH,-25.23333333,152.35,QLD ,
BOOTOOLOO,-20.05,148.2,QLD ,
BOOUBYJAN,-25.898333,151.920563,QLD ,
BOOVAL,-27.61389,152.792236,QLD ,
BOOYAL,-25.209723,152.040558,QLD ,
BOOYAL,-25.21083,152.08583,QLD ,
BOOYAN,-24.68333333,152.15,QLD ,
BORALLON,-27.50250053,152.7011108,QLD ,
BORALMA,-36.237517,146.399518,VIC ,
BORDERTOWN,-36.30815,140.772112,GA ,
BOREEN POINT,-26.281666,152.984726,QLD ,
BOREEN POINT,-26.286406,152.9952,GA ,
BOREEN,-26.28451667,152.9932893,QLD ,
BORILLA,-23.56666667,147.6333333,QLD ,
BORLANDS,-37.3906944,144.1206944,VIC ,
BORNES HILL,-37.5294741,142.4824781,VIC ,
BORONIA HEIGHTS,-27.68861008,153.019165,QLD ,
BORONIA,-25.894722,153.023056,QLD ,
BORONIA,-37.8569657,145.2904121,VIC ,
BOROREN,-24.24453126,151.4952348,QLD ,
BOROREN,-24.275,151.516663,QLD ,
BOROUGH HUTS,-37.2248611,142.5398611,VIC ,
BORROLOOLA,-16.07078,136.30722,GA ,
BORUNG,-36.2874653,143.7750289,VIC ,
BOSTOCKS CREEK,-38.301706,143.1287375,VIC ,
BOTANIC RIDGE,-38.1444444,145.2669444,VIC ,
BOTHWELL,-42.38477,147.00832,GA ,
BOULDER CREEK,-23.671944,150.315842,QLD ,
BOULDER,-30.78206,121.48884,GA ,
BOULDERCOMBE,-23.530556,150.487778,QLD ,
BOULDERCOMBE,-23.57054,150.46951,GA ,
BOULDERCOMBE,-23.57675619,150.4671892,QLD ,
BOULIA,-22.89487839,139.9264832,QLD ,
BOULIA,-22.90959958,139.9067468,QLD ,
BOULIA,-22.9112705,139.909514,GA ,
BOULKA,-35.1354167,142.28875,VIC ,
BOUNDARY BEND,-34.7297952,143.110037,VIC ,
BOURKE,-30.09008,145.94543,GA ,
BOWEN HILLS,-27.44333,153.03611,QLD ,
BOWEN MOUNTAIN,-33.57192,150.62563,GA ,
BOWEN,-20.01038774,148.2416425,QLD ,
BOWEN,-20.013239,148.2471485,GA ,
BOWEN,-20.1325,148.18028,QLD ,
BOWENVALE,-36.9985358,143.7003961,VIC ,
BOWENVILLE,-27.29556,151.42944,QLD ,
BOWENVILLE,-27.30424758,151.4924841,QLD ,
BOWEYA NORTH,-36.2271503,146.1060653,VIC ,
BOWEYA,-36.27172,146.1460315,VIC ,
BOWEYA,-36.2764999,146.1033354,VIC ,
BOWMAN GAP,-36.4859722,146.6606944,VIC ,
BOWMAN,-22.65,149.6833333,QLD ,
BOWMANS FOREST,-36.466767,146.6298941,VIC ,
BOWNING,-34.767581,148.815504,GA ,
BOWRAL,-34.4775,150.4204,GA ,
BOWRAVILLE,-30.64997,152.85145,GA ,
BOWSER,-36.310187,146.362096,VIC ,
BOWYER,-23.25,145.2333333,QLD ,
BOX CORNER,-37.1380556,146.4605556,VIC ,
BOX HILL NORTH,-37.8053754,145.1292193,VIC ,
BOX HILL SOUTH,-37.8367725,145.123233,VIC ,
BOX HILL,-37.8215005,145.126177,VIC ,
BOXWOOD,-36.3204879,145.7891379,VIC ,
BOXWOOD,-36.3239102,145.8159375,VIC ,
BOYANDA,-26.65,150.1333333,QLD ,
BOYANUP,-33.48295,115.72838,GA ,
BOYEO,-36.2815278,141.5245833,VIC ,
BOYKAMBIL,-27.871666,153.367218,QLD ,
BOYLAND,-27.93916512,153.1300049,QLD ,
BOYNE ISLAND,-23.933611,151.321381,QLD ,
BOYNE ISLAND,-23.947777,151.355011,QLD ,
BOYNE ISLAND,-23.94788,151.3540805,GA ,
BOYNE VALLEY,-24.453611,151.292786,QLD ,
BOYNEDALE,-24.232224,151.28389,QLD ,
BOYNESIDE,-26.7080555,151.5080566,QLD ,
BOYNEWOOD,-25.63583,151.27056,QLD ,
BOYS,-38.6856944,146.05625,VIC ,
BOYUP BROOK,-33.83425,116.38776,GA ,
BP (Kwinana) Refinery Ltd,-32.22533035,115.7613678,AHO ,
BRACALBA,-27.00638962,152.8336029,QLD ,
BRACEWELL,-23.925554,150.906387,QLD ,
BRACK BRIDGE,-37.1670833,146.0551389,VIC ,
BRACKEN RIDGE,-27.31923866,153.0344086,QLD ,
BRACKNELL,-41.64997,146.93844,GA ,
BRADFORD,-36.9225162,144.06036,VIC ,
BRADSHAW,-37.5943056,144.1865278,VIC ,
BRADVALE,-37.7945488,143.3570969,VIC ,
BRAEMEADOWS,-18.64706612,146.2636108,QLD ,
BRAEMORE,-27.03999901,152.3844452,QLD ,
BRAESIDE,-38.000732,145.1239839,VIC ,
BRAIDWOOD,-35.44148,149.7998,GA ,
BRAMSTON BEACH,-17.3516674,146.003891,QLD ,
BRAMSTON BEACH,-17.35401859,146.0247062,QLD ,
BRANCH CREEK,-25.39417,151.43444,QLD ,
BRANCHVIEW,-27.61917,151.35111,QLD ,
BRANDON PARK,-37.9073611,145.1665278,VIC ,
BRANDON,-19.54611015,147.3536224,QLD ,
BRANDON,-19.55428036,147.3547194,QLD ,
BRANDON,-19.5543435,147.354315,GA ,
BRANDY CREEK,-20.334446,148.675003,QLD ,
BRANDY CREEK,-38.102959,145.9151639,VIC ,
BRANDY GULLY,-27.495059,153.1706,QLD ,
BRANDY HILL,-32.69602,151.69689,GA ,
BRANXHOLM,-41.16701,147.74464,GA ,
BRANXHOLME,-37.842611,141.820008,VIC ,
BRANXHOLME,-37.9028179,141.766875,VIC ,
BRANXTON,-32.65547,151.35114,GA ,
BRANYAN,-24.91777802,152.2647247,QLD ,
BRASSALL,-27.591667,152.735275,QLD ,
BRAVINGTON,-38.0824981,145.9230297,VIC ,
BRAY PARK,-27.29388809,152.9680481,QLD ,
BRAYBROOK,-37.7846537,144.8538578,VIC ,
BREADALBANE,-20.441666,148.611954,QLD ,
BREAKAWAY CREEK,-38.0283841,141.8070891,VIC ,
BREAKAWAY CREEK,-38.0421313,141.8447007,VIC ,
BREAKAWAY,-20.72460556,139.5314636,QLD ,
BREAKFAST CREEK,-27.43333333,153.05,QLD ,
BREAKWATER,-38.180021,144.3733085,VIC ,
BREAMLEA,-38.2925161,144.3836836,VIC ,
BREAMLEA,-38.2953676,144.3917757,VIC ,
BREDDAN,-19.97194,146.26806,QLD ,
BREMER BAY,-34.3924,119.38045,GA ,
BREMER JUNCTION,-27.58333333,152.85,QLD ,
BRENANAH JUNCTION,-36.5523611,143.7029167,VIC ,
BRENANAH,-36.566389,143.7072925,VIC ,
BRENDALE,-27.32389069,152.9813843,QLD ,
BRENTWOOD,-35.9679167,142.1679167,VIC ,
BREWARRINA,-29.96067,146.85986,GA ,
BREWSTER,-37.496236,143.5301389,VIC ,
BRIAGOLONG,-37.8038515,147.0847295,VIC ,
BRIAGOLONG,-37.84356,147.07267,GA ,
BRIAR HILL,-37.7060745,145.1216511,VIC ,
BRIBIE ISLAND NORTH,-26.88277817,153.1227722,QLD ,
BRIDGE CREEK,-36.8533332,146.0945735,VIC ,
BRIDGE CREEK,-36.9214061,146.1083452,VIC ,
BRIDGE INN,-37.0295833,142.82375,VIC ,
BRIDGEMAN DOWNS,-27.352501,152.992783,QLD ,
BRIDGES,-26.54,152.94278,QLD ,
BRIDGETOWN,-33.96242,116.13598,GA ,
BRIDGEWATER NORTH,-36.5493855,144.002887,VIC ,
BRIDGEWATER ON LODDON (BRIDGEWATER MEMORIAL HALL GROUNDS) NEIGHBOURHOOD SAFER PLACE,-36.6030556,143.9452778,VIC ,
BRIDGEWATER ON LODDON,-36.6022175,143.9408205,VIC ,
BRIDGEWATER,-36.60267,143.94227,GA ,
BRIDGEWATER,-36.637429,143.9485449,VIC ,
BRIDGEWATER,-42.73719,147.22785,GA ,
BRIDPORT,-41.00046,147.39176,GA ,
BRIGALOW PARK,-27.2,151.7833333,QLD ,
BRIGALOW,-26.84230924,150.7883271,QLD ,
BRIGALOW,-26.88167,150.81639,QLD ,
BRIGHT (PIONEER PARK FOOTBALL OVAL) NEIGHBOURHOOD SAFER PLACE,-36.7372123,146.9712514,VIC ,
BRIGHT (PIONEER PARK PAVILLION) NEIGHBOURHOOD SAFER PLACE,-36.7378631,146.9702773,VIC ,
BRIGHT,-36.7026055,147.0318895,VIC ,
BRIGHT,-36.727595,146.9596545,GA ,
BRIGHTLY,-21.31278,148.90278,QLD ,
BRIGHTON BEACH,-37.9259722,144.9895833,VIC ,
BRIGHTON EAST,-37.9184741,145.0156379,VIC ,
BRIGHTON EAST,-37.9195718,145.0242703,VIC ,
BRIGHTON NORTH,-37.9018056,144.9993056,VIC ,
BRIGHTON,-27.29868168,153.057171,QLD ,
BRIGHTON,-37.9080308,144.994357,VIC ,
BRIGHTVIEW (LOCKYER VALLEY REGIONAL COUNCIL),-27.51472282,152.4763794,QLD ,
BRIGHTVIEW (SOMERSET REGIONAL COUNCIL),-27.48999977,152.5094452,QLD ,
BRIGHTWATERS,-33.11357,151.54473,GA ,
BRIGOODA,-26.22333336,151.3816681,QLD ,
BRIM EAST,-36.0968056,142.5609722,VIC ,
BRIM,-36.0718025,142.4438288,VIC ,
BRIMBANK,-37.7351389,144.84375,VIC ,
BRIMBOAL,-37.3946081,141.407557,VIC ,
BRIMIN,-36.0519963,146.2496997,VIC ,
BRIMPAEN,-37.0537301,142.2037305,VIC ,
BRIMPAEN,-37.1217728,142.2520229,VIC ,
BRINGALBERT,-36.828993,141.1711807,VIC ,
BRINGALILY SOUTH,-28.1,151.1666667,QLD ,
BRINGALILY,-28.08333,151.15,QLD ,
BRINSMEAD,-16.90138817,145.7147217,QLD ,
BRINSOP,-26.58333333,148.4666667,QLD ,
BRISBANE AIRPORT,-27.39333,153.11333,QLD ,
BRISBANE CITY,-27.46777916,153.0261078,QLD ,
BRISBANE,-27.46784774,153.0280133,QLD ,
BRISBANE,-27.470959,153.025308,GA ,
BRIT BRIT,-37.4078368,141.7406728,VIC ,
BRITANNIA CREEK,-37.7851389,145.6554167,VIC ,
BROADBEACH WATERS,-28.02638817,153.4172211,QLD ,
BROADBEACH,-28.02722168,153.4319458,QLD ,
BROADFORD,-37.2030985,145.0496825,GA ,
BROADFORD,-37.2079973,145.0654831,VIC ,
BROADLANDS,-19.9,147.7,QLD ,
BROADLANDS,-37.8582537,147.6855393,VIC ,
BROADMEAD,-27,151.0333333,QLD ,
BROADMEADOWS,-37.6818488,144.9284041,VIC ,
BROADMERE,-25.49777794,149.5550079,QLD ,
BROADMOUNT,-23.48333333,150.7833333,QLD ,
BROADWATER,-28.08333333,148.5833333,QLD ,
BROADWATER,-28.66110992,151.878891,QLD ,
BROADWATER,-29.01108,153.43563,GA ,
BROADWATER,-38.1245791,142.0805647,VIC ,
BROCKET,-37.0390278,147.1473611,VIC ,
BRODRIBB RIVER,-37.7096294,148.5802638,VIC ,
BROKE,-32.75119,151.10448,GA ,
BROKEN CREEK,-36.4347803,145.8903506,VIC ,
BROKEN HILL,-31.96173,141.45997,GA ,
BROKEN RIVER,-21.16694,148.51,QLD ,
BROMELTON,-27.98666763,152.883606,QLD ,
BROMFLEET,-27.906717,153.115167,QLD ,
BROMLEY,-36.8869796,143.7864103,VIC ,
BRONZEWING,-35.1901389,142.3906944,VIC ,
BROOKFIELD,-27.49028,152.89583,QLD ,
BROOKFIELD,-36.4523611,146.5526389,VIC ,
BROOKFIELD,-37.7011699,144.5407978,VIC ,
BROOKHILL,-19.42083,146.86583,QLD ,
BROOKLANDS,-26.72750092,151.8294373,QLD ,
BROOKLYN,-33.547822,151.226103,GA ,
BROOKLYN,-37.8116284,144.8397198,VIC ,
BROOKLYN,-37.8213783,144.8474342,VIC ,
BROOKSBY,-37.0051389,141.7734722,VIC ,
BROOKSBYS,-37.0051389,141.7734722,VIC ,
BROOKSIDE,-36.74875,146.88375,VIC ,
BROOKSTEAD,-27.71778,151.43722,QLD ,
BROOKSTEAD,-27.7581366,151.4466519,QLD ,
BROOKTON,-32.37235,117.0105,GA ,
BROOKVILLE,-37.351852,147.6691695,VIC ,
BROOKWATER,-27.658888,152.897217,QLD ,
BROOLOO,-26.487223,152.700836,QLD ,
BROOLOO,-26.50833321,152.7055511,QLD ,
BROOME,-17.95538,122.23922,GA ,
BROOMFIELD,-25.45,152.2333333,QLD ,
BROOMFIELD,-37.3847002,143.9085875,VIC ,
BROOMS HEAD,-29.60893,153.33645,GA ,
BROOWEENA,-25.59833,152.26639,QLD ,
BROOWEENA,-25.60174758,152.2632827,QLD ,
BROOYAR,-26.016945,152.390839,QLD ,
BROPHYS CROSSING,-37.9031944,144.6409722,VIC ,
BROUGHTON,-20.09777832,146.3255615,QLD ,
BROUGHTON,-36.14754,141.3210351,VIC ,
BROUGHTON,-36.2042826,141.3375583,VIC ,
BROULEE,-35.85504,150.17591,GA ,
BROVINIA CREEK,-25.95,151.15,QLD ,
BROVINIA,-25.88999939,151.1483307,QLD ,
BROWN HILL,-37.5494955,143.9125438,VIC ,
BROWNS CAMP,-25.95343,152.910592,QLD ,
BROWNS CORNER,-38.3829167,147.0854167,VIC ,
BROWNS PLAINS,-27.66110992,153.0513916,QLD ,
BROWNS PLAINS,-36.0379404,146.6208065,VIC ,
BROXBURN,-27.73167,151.70389,QLD ,
BRUARONG,-36.4202555,146.8677353,VIC ,
BRUCE ROCK,-31.88046,118.14749,GA ,
BRUCKNELL,-38.4634252,142.8991462,VIC ,
BRUCKNELL,-38.4884139,142.8834746,VIC ,
BRUMBY,-37.0193943,148.0535113,VIC ,
BRUNSWICK EAST,-37.7684972,144.9785022,VIC ,
BRUNSWICK HEADS,-28.54154,153.5481,GA ,
BRUNSWICK JUNCTION,-33.25556,115.83655,GA ,
BRUNSWICK WEST,-37.7627435,144.9445574,VIC ,
BRUNSWICK,-37.7666919,144.9628549,VIC ,
BRUSH CREEK,-28.58722,151.13667,QLD ,
BRUTHEN,-37.7076771,147.8619329,VIC ,
BRUTHEN,-37.70825,147.83488,GA ,
BRYCES FLAT,-37.3179167,144.12125,VIC ,
BRYDEN,-27.23194504,152.60112,QLD ,
BRYMAROO,-27.21889,151.62528,QLD ,
BUANGOR EAST,-37.3881944,143.2493056,VIC ,
BUANGOR,-37.3479739,143.2303141,VIC ,
BUANGOR,-37.3749709,143.1596419,VIC ,
BUARABA SOUTH,-27.42027664,152.2427826,QLD ,
BUARABA,-27.36527824,152.3011169,QLD ,
BUCASIA,-21.03121185,149.1599723,QLD ,
BUCASIA,-21.034775,149.161861,GA ,
BUCASIA,-21.03583,149.14556,QLD ,
BUCCA,-24.8625,152.10083,QLD ,
BUCCAN,-27.74222,153.13528,QLD ,
BUCHAN (OVAL) NEIGHBOURHOOD SAFER PLACE,-37.4973709,148.1772,VIC ,
BUCHAN SOUTH,-37.5625307,148.0974601,VIC ,
BUCHAN,-16.7434682,145.6683226,QLD ,
BUCHAN,-37.4235137,148.1658211,VIC ,
BUCHANAN,-21.49083328,145.7294312,QLD ,
BUCHANANS FORT,-28.284595,153.066644,QLD ,
BUCHEEN CREEK,-36.42125,147.5290278,VIC ,
BUCHEEN,-36.42125,147.5290278,VIC ,
BUCKINGHAM,-22.27571678,139.4389801,QLD ,
BUCKLAND JUNCTION,-36.8759722,146.8709722,VIC ,
BUCKLAND,-24.56722,147.55944,QLD ,
BUCKLAND,-36.8563395,146.8870496,VIC ,
BUCKLEY SWAMP,-37.8565134,142.0885695,VIC ,
BUCKLEY,-38.218889,144.0915985,VIC ,
BUCKRABANYULE,-36.2292568,143.5035172,VIC ,
BUCKRABANYULE,-36.2954255,143.5364049,VIC ,
BUDDINA,-26.69388771,153.132782,QLD ,
BUDERIM,-26.68479328,153.0532903,QLD ,
BUDERIM,-26.685818,153.050547,GA ,
BUDERIM,-26.69,153.06778,QLD ,
BUDGEE BUDGEE,-37.5491762,147.0885356,VIC ,
BUDGEE,-27.78194,152.01778,QLD ,
BUDGEREE EAST,-38.4281944,146.3779167,VIC ,
BUDGEREE,-38.4193985,146.3652584,VIC ,
BUDGERUM EAST,-35.7711662,143.6526155,VIC ,
BUDGERUM,-35.7890278,143.5759722,VIC ,
BUDGEWOI,-33.2339,151.55412,GA ,
BUFFALO CREEK,-36.5934722,146.7295833,VIC ,
BUFFALO RIVER,-36.6550094,146.6482689,VIC ,
BUFFALO,-38.6656871,146.012687,VIC ,
BUGGINS FLAT,-36.5181944,143.6604167,VIC ,
BUILYAN,-24.53,151.38417,QLD ,
BUKALI,-24.819168,151.170563,QLD ,
BULAHDELAH,-32.40698,152.21186,GA ,
BULART,-37.5845175,141.9111734,VIC ,
BULDAH,-37.2384009,149.1243244,VIC ,
BULGA,-35.3045165,143.3510105,VIC ,
BULGABACK CREEK,-37.5743056,147.1845833,VIC ,
BULGANA,-37.1362438,142.9949715,VIC ,
BULGROO,-25.8,143.9833333,QLD ,
BULGUN,-17.89472199,145.9294434,QLD ,
BULIMBA,-27.450001,153.058334,QLD ,
BULL RING,-37.42125,149.7159722,VIC ,
BULL SWAMP,-38.21125,145.9159722,VIC ,
BULLA,-37.6297191,144.7981655,VIC ,
BULLA,-37.63843,144.80737,GA ,
BULLABUL,-36.6154167,143.8940278,VIC ,
BULLAHARRE,-38.3495213,143.1402172,VIC ,
BULLAROOK,-37.4801337,144.0198781,VIC ,
BULLAROOK,-37.5093985,144.0083686,VIC ,
BULLARTO SOUTH,-37.4122883,144.2278627,VIC ,
BULLARTO SOUTH,-37.4313448,144.2204592,VIC ,
BULLARTO,-37.388264,144.2206325,VIC ,
BULLAWARRA,-27.992222,143.332214,QLD ,
BULLCAMP,-26.59555626,152.10112,QLD ,
BULLDOG JUNCTION,-37.8501389,146.8001389,VIC ,
BULLECOURT,-28.53333333,151.8666667,QLD ,
BULLEEN,-37.7669919,145.0857111,VIC ,
BULLENGAROOK EAST,-37.4965278,144.4968056,VIC ,
BULLENGAROOK,-37.4806385,144.5041023,VIC ,
BULLERINGA,-17.61527824,143.9330597,QLD ,
BULLHEAD CREEK,-36.3681944,147.2965278,VIC ,
BULLHEAD,-36.3681944,147.2965278,VIC ,
BULLI CREEK,-27.98333,150.83333,QLD ,
BULLIOH,-36.1670309,147.367637,VIC ,
BULLOO DOWNS,-28.6023674,142.8123322,QLD ,
BULLS SWAMP,-38.21125,145.9159722,VIC ,
BULLTOWN,-37.3031944,147.1073611,VIC ,
BULLUMWAAL,-37.6421024,147.5911211,VIC ,
BULLYARD,-24.94694,152.06639,QLD ,
BULLYARD,-24.951944,152.060837,QLD ,
BULN BULN EAST,-38.0720826,146.0142835,VIC ,
BULN BULN,-38.0927067,145.9557007,VIC ,
BULN BULN,-38.09629,145.94124,GA ,
BULOKE,-36.3240278,142.9318056,VIC ,
BULWER ISLAND,-27.4,153.1333333,QLD ,
BULWER,-27.07868002,153.3696642,QLD ,
BUMBERRAH,-37.7901226,147.8335027,VIC ,
BUNBARTHA,-36.2325859,145.3348781,VIC ,
BUNBURRA,-28.058054,152.688889,QLD ,
BUNBURY,-33.32711,115.64137,GA ,
BUNDABERG CENTRAL,-24.86777878,152.35112,QLD ,
BUNDABERG EAST,-24.85944,152.37472,QLD ,
BUNDABERG NORTH,-24.84972,152.34556,QLD ,
BUNDABERG SOUTH,-24.87194,152.35944,QLD ,
BUNDABERG WEST,-24.87194443,152.3386078,QLD ,
BUNDABERG,-24.865543,152.348658,GA ,
BUNDABERG,-24.86619392,152.3493824,QLD ,
BUNDALAGUAH,-38.0243348,147.021877,VIC ,
BUNDALEER,-23.55,150.3833333,QLD ,
BUNDALL,-28.01166725,153.4052734,QLD ,
BUNDALONG SOUTH,-36.1019738,146.186051,VIC ,
BUNDALONG,-36.0300025,146.164753,GA ,
BUNDALONG,-36.0509019,146.1317965,VIC ,
BUNDAMBA,-27.6044445,152.8091736,QLD ,
BUNDANOON,-34.65851,150.29913,GA ,
BUNDARA,-36.9861503,147.3374025,VIC ,
BUNDARRA,-30.171798,151.0758795,GA ,
BUNDEENA,-34.085085,151.151245,GA ,
BUNDI,-26.13472,149.57778,QLD ,
BUNDING,-37.5380975,144.1712261,VIC ,
BUNDOCK,-20.66278,142.89333,QLD ,
BUNDOORA,-22.97528,148.46333,QLD ,
BUNDOORA,-37.6833565,145.0665181,VIC ,
BUNDOORA,-37.6984566,145.0690488,VIC ,
BUNDOORA,-37.7117303,145.0478629,VIC ,
BUNERBA,-23.88333333,150.3,QLD ,
BUNERU,-23.95,150.1666667,QLD ,
BUNG BONG,-37.0878192,143.5943934,VIC ,
BUNG BONG,-37.1170286,143.55219,VIC ,
BUNGABAN,-25.92333,150.18556,QLD ,
BUNGADOO,-24.99556,152.08444,QLD ,
BUNGADOR,-38.4286006,143.3218869,VIC ,
BUNGAL,-37.7174704,144.1330597,VIC ,
BUNGALALLY,-36.7972155,142.2544994,VIC ,
BUNGALOW,-16.9383316,145.7555542,QLD ,
BUNGAREE,-37.5610175,144.0012419,VIC ,
BUNGEET WEST,-36.3372243,145.9970145,VIC ,
BUNGEET,-36.2816608,146.0578755,VIC ,
BUNGENDORE,-35.256253,149.4404155,GA ,
BUNGEWORGORAI,-26.47806,148.61139,QLD ,
BUNGIL,-26.65944,148.78417,QLD ,
BUNGIL,-36.0668178,147.3977787,VIC ,
BUNGULUKE,-36.0570933,143.3571472,VIC ,
BUNGUNDARRA,-23.045834,150.640274,QLD ,
BUNGUNYA,-28.4248133,149.6569528,QLD ,
BUNGUNYA,-28.43361,149.67833,QLD ,
BUNINYONG (CENTRAL BUSINESS DISTRICT) NEIGHBOURHOOD SAFER PLACE,-37.6498207,143.8854877,VIC ,
BUNINYONG,-37.6384704,143.9271301,VIC ,
BUNINYONG,-37.65019,143.88388,GA ,
BUNINYONG,-37.6541279,143.8871937,VIC ,
BUNJURGEN,-28.039722,152.617218,QLD ,
BUNKERS HILL,-27.61666667,151.8333333,QLD ,
BUNKERS HILL,-37.5745411,143.7451127,VIC ,
BUNSTONS,-36.9593056,146.26875,VIC ,
BUNYA CREEK,-25.37194,152.83583,QLD ,
BUNYA MOUNTAINS (SOUTH BURNETT REGIONAL),-26.88167,151.64,QLD ,
BUNYA MOUNTAINS (WESTERN DOWNS REGIONAL),-26.87806,151.55,QLD ,
BUNYA,-27.36527824,152.945282,QLD ,
BUNYAVILLE,-27.36666667,152.9666667,QLD ,
BUNYIP NORTH,-38.0625202,145.7257232,VIC ,
BUNYIP,-38.09789,145.71606,GA ,
BUNYIP,-38.1020505,145.7226577,VIC ,
BURAGWONDUC,-37.4859642,146.7597784,VIC ,
BURANDA,-27.5,153.0333333,QLD ,
BURBANK,-27.55833244,153.1588898,QLD ,
BURDELL,-19.24777794,146.6966705,QLD ,
BUREKUP,-33.30707,115.81368,GA ,
BURGAMOO,-18.73333333,146.15,QLD ,
BURGLARS GAP,-37.3973611,149.4640278,VIC ,
BURGOWAN,-25.34972,152.65111,QLD ,
BURKES BRIDGE,-35.836345,144.3375465,VIC ,
BURKES FLAT,-36.6408525,143.5609185,VIC ,
BURKETOWN,-17.7407191,139.5478584,QLD ,
BURKETOWN,-17.7409975,139.547941,GA ,
BURKETOWN,-17.85266495,139.6208954,QLD ,
BURLEIGH HEADS,-28.10388947,153.4355621,QLD ,
BURLEIGH WATERS,-28.08750153,153.4355621,QLD ,
BURLEIGH,-20.29402542,143.0544891,QLD ,
BURLEIGH,-28.09111,153.45278,QLD ,
BURLEIGH,-37.8498611,145.4426389,VIC ,
BURLEIGH,-37.8506944,145.4270833,VIC ,
BURNBANK,-37.2294609,143.5948257,VIC ,
BURNCLUITH,-26.58056,150.72917,QLD ,
BURNDALE,-38.4881944,145.6793056,VIC ,
BURNETT CREEK,-28.263611,152.5961,QLD ,
BURNETT HEADS,-24.765077,152.4136885,GA ,
BURNETT HEADS,-24.774166,152.417221,QLD ,
BURNETT HEADS,-24.77499962,152.4083252,QLD ,
BURNEWANG,-36.4776316,144.6718442,VIC ,
BURNIE,-41.05584,145.90375,GA ,
BURNLEY,-37.8297849,145.017257,VIC ,
BURNS BEND,-36.78625,145.9643056,VIC ,
BURNSIDE HEIGHTS,-37.73298,144.7559215,VIC ,
BURNSIDE,-26.63166618,152.9344482,QLD ,
BURNSIDE,-37.7502019,144.7524738,VIC ,
BURNT BRIDGE,-37.34625,146.05625,VIC ,
BURNT CAMP,-37.5265278,146.3029167,VIC ,
BURONGA,-34.17034,142.18152,GA ,
BURPENGARY EAST,-27.14444,153.00028,QLD ,
BURPENGARY,-27.15451582,152.9730037,QLD ,
BURPENGARY,-27.155556,152.961105,QLD ,
BURRA BURRI,-26.42417,151.0475,QLD ,
BURRA,-33.67171,138.92835,GA ,
BURRAMBOOT,-36.5311871,144.833987,VIC ,
BURRAMINE SOUTH,-36.0731062,145.8469282,VIC ,
BURRAMINE,-36.0112145,145.8818402,VIC ,
BURRAR ISLET,-10.146111,142.820831,QLD ,
BURRAWANG LOOKOUT,-28.199745,153.213527,QLD ,
BURRAWANG,-34.59282,150.51703,GA ,
BURREREO,-36.51375,142.7323611,VIC ,
BURRILL LAKE,-35.38921,150.44369,GA ,
BURRINGBAR,-28.4358,153.47324,GA ,
BURROIN,-35.6606944,142.3159722,VIC ,
BURROWYE,-36.037132,147.5360407,VIC ,
BURRUM HEADS,-25.18424507,152.6138302,QLD ,
BURRUM HEADS,-25.184978,152.613275,GA ,
BURRUM HEADS,-25.208055,152.608063,QLD ,
BURRUM RIVER,-25.270555,152.589996,QLD ,
BURRUM TOWN,-25.32889,152.58722,QLD ,
BURRUM,-25.3,152.5666667,QLD ,
BURRUM,-36.6173611,142.7345833,VIC ,
BURRUMBA,-25.2,152.55,QLD ,
BURRUMBEET,-37.4875604,143.6487256,VIC ,
BURRUMBEET,-37.4966362,143.5918169,VIC ,
BURRUPA,-38.70125,143.2481944,VIC ,
BURTON WELL,-26.835397,151.551456,QLD ,
BURTON,-21.59,148.072495,QLD ,
BURUA,-23.94444,151.20694,QLD ,
BURWOOD EAST,-37.8537245,145.150335,VIC ,
BURWOOD,-37.8486584,145.113909,VIC ,
BURWOOD,-37.8556494,145.1047264,VIC ,
BUSH GROVE,-26.71666667,151.2666667,QLD ,
BUSHFIELD,-38.322912,142.5286724,VIC ,
BUSHFIELD,-38.3272478,142.508134,VIC ,
BUSHLAND BEACH,-19.192307,146.676387,GA ,
BUSHLAND BEACH,-19.20166779,146.6797333,QLD ,
BUSHLEY,-23.592222,150.26889,QLD ,
BUSHY PARK,-37.8533906,147.0113449,VIC ,
BUSSELTON,-33.65249,115.3455,GA ,
BUTCHERS CORNER,-23.85,150.9333333,QLD ,
BUTCHERS CREEK,-17.33972359,145.6986084,QLD ,
BUTCHERS RIDGE,-37.262061,148.2606125,VIC ,
BUTE,-33.86561,138.00659,GA ,
BUTHURRA,-20.98333333,148.8666667,QLD ,
BUTRU,-21.48793613,139.7239753,QLD ,
BUXTON,-25.18583298,152.4955597,QLD ,
BUXTON,-34.26017,150.53288,GA ,
BUXTON,-37.4239,145.70897,GA ,
BUXTON,-37.4350956,145.713843,VIC ,
BYADUK NORTH,-37.8633475,141.9891385,VIC ,
BYADUK,-37.9344006,141.8660213,VIC ,
BYADUK,-37.9391542,141.9726786,VIC ,
BYADUK,-37.9767692,141.9665778,VIC ,
BYAWATHA,-36.288695,146.4727087,VIC ,
BYBERA,-28.2675,150.93917,QLD ,
BYEE,-26.18388748,151.8513947,QLD ,
BYELLEE,-23.87249947,151.1966705,QLD ,
BYER,-21.15,148.6,QLD ,
BYERSTOWN,-16.03333333,144.7166667,QLD ,
BYFIELD,-22.84918,150.65189,GA ,
BYFIELD,-22.889723,150.638046,QLD ,
BYFORD,-32.22099,116.009,GA ,
BYLANDS,-37.3508413,144.8867244,VIC ,
BYLANDS,-37.3580884,144.9594156,VIC ,
BYMOUNT EAST,-26.06666667,148.6,QLD ,
BYMOUNT,-26.09194,148.62528,QLD ,
BYRNE,-36.5543056,146.3809722,VIC ,
BYRNESIDE,-36.4137846,145.1652629,VIC ,
BYRNESTOWN,-25.521944,151.767776,QLD ,
BYRNEVILLE,-36.5115278,142.3368056,VIC ,
BYRON BAY,-28.64201,153.61194,GA ,
Baa Budjeree,-32.5152,149.1012,NSW ,
Baan Baa,-30.5991,149.954,NSW ,
Baandee North,-31.36667,117.9031,WA ,
Baandee,-31.52861,117.9781,WA ,
Baandee,-31.58056,117.9814,WA ,
Babakin,-32.11959,118.0243,WA ,
Babakin,-32.13764,118.0448,WA ,
Babbacooringanna,-20.64116,118.2577,WA ,
Babbage Island,-24.87651,113.6342,WA ,
Babinda,-17.34666824,145.9230652,AHO ,
Babinda,-31.9274,146.514,NSW ,
Babjarrimannos,-21.82648,114.0733,WA ,
Babjarrimannos,-21.82648087,114.0733032,AHO ,
Babyl Creek,-28.7202,152.8004,NSW ,
Back Beach Road,-38.49674988,145.1878052,AHO ,
Back Creek,-28.406,153.1729,NSW ,
Back Creek,-30.1285,150.2698,NSW ,
Back Creek,-31.9652,152.0596,NSW ,
Back Creek,-33.5985,147.8679,NSW ,
Back Creek,-33.8652,147.4012,NSW ,
Back Creek,-35.3474,149.9368,NSW ,
Back Creek,-36.9735,149.8096,NSW ,
Back Forest,-34.8485,150.6846,NSW ,
Back Paddock Public School,-35.5652,146.1179,NSW ,
Back Paddock,-35.5652,146.1179,NSW ,
Back Valley,-35.53517,138.53942,SA ,
Back Yamma,-33.3152,148.1346,NSW ,
Backmede,-28.7485,153.0179,NSW ,
Backwater,-30.0652,151.8846,NSW ,
Backy Point,-32.91483676,137.7888086,SA ,
Baddera,-28.28209,114.6345,WA ,
Baden Park,-32.1818,144.1846,NSW ,
Baden,-42.43000031,147.4600067,TAS ,
Badgebup,-33.60194,117.8844,WA ,
Badgebup,-33.62972,117.8994,WA ,
Badger Corner Road,-40.22235489,148.1897583,AHO ,
Badger Ground,-32.6485,149.9679,NSW ,
Badger Head,-41.09999847,146.6699982,TAS ,
Badgerin Rock,-30.78153,117.3206,WA ,
Badgerys Creek,-33.8817,150.7441,NSW ,
Badgerys Crossing Place,-34.7818,150.1012,NSW ,
Badgetopping,-31.62375,117.8237,WA ,
Badgin,-31.80821,116.9906,WA ,
Badgingarra,-30.39389,115.8417,WA ,
Badgingarra,-30.39861,115.5542,WA ,
Badhara,-35.23357541,136.9625796,SA ,
Badja,-36.0485,149.5346,NSW ,
Badjaling Estate,-31.97154,117.3876,WA ,
Badjaling,-31.95,117.4736,WA ,
Badjaling,-31.99722,117.4989,WA ,
Badkins Point,-31.3985,151.1346,NSW ,
Badu,-10.13239861,142.1875,AHO ,
Baerami Creek,-32.4652,150.4846,NSW ,
Baerami,-32.3818,150.4679,NSW ,
Bagdad,-34.5485,147.4846,NSW ,
Bagdad,-42.63000107,147.2200012,TAS ,
Baggot Well,-34.30236,138.98345,SA ,
Bagnoo,-31.4652,152.5346,NSW ,
Bago Lookout,-31.4985,152.7012,NSW ,
Bago,-31.5068,152.6679,NSW ,
Bagot Street,-41.15797424,146.8184052,AHO ,
Bagot Well,-34.30236,138.98345,SA ,
Bagot,-12.416125,130.855153,NT ,
Bagotville,-28.9818,153.4179,NSW ,
Baileys Lookout,-30.8818,149.7346,NSW ,
Baillie Street,-23.83978167,151.2421518,AHO ,
Bailup,-31.72544,116.2773,WA ,
Bailup,-31.73988,116.3115,WA ,
Baines,-15.8388,129.69,NT ,
Baird Bay,-33.14746781,134.3631655,SA ,
Baird Bay,-33.14746857,134.3631592,AHO ,
Bairnsdale,-37.82289123,147.6104126,AHO ,
Bakana,-31.3652,150.5512,NSW ,
Bakara Well,-34.57446,139.84352,SA ,
Bakara,-34.65604,139.78203,SA ,
Baker Gully,-35.13301,138.64008,SA ,
Bakers Beach,-41.13999939,146.6000061,TAS ,
Bakers Creek,-30.2818,151.0179,NSW ,
Bakers Creek,-30.3207,150.9979,NSW ,
Bakers Creek,-30.8191,152.7193,NSW ,
Bakers Creek,-31.9485,152.1012,NSW ,
Bakers Downfall,-31.4818,151.3512,NSW ,
Bakers Hill,-31.73544,116.4504,WA ,
Bakers Hill,-31.75071,116.4554,WA ,
Bakers Junction,-34.92879,117.9135,WA ,
Bakers Swamp,-32.781,148.9153,NSW ,
Bakewell Town,-34.90174,138.63753,SA ,
Bakewell,-12.4967,130.9931,NT ,
Balaclava,-34.4407,150.4807,NSW ,
Baladjie,-30.98429,118.9387,WA ,
Balagundi,-30.72731,121.682,WA ,
Balaklava North,-34.14175,138.41336,SA ,
Balaklava South Extension,-34.15318,138.418,SA ,
Balaklava South,-34.15135,138.41836,SA ,
Balaklava West,-34.14474,138.40733,SA ,
Balaklava,-34.14756087,138.4158148,SA ,
Balala,-30.6132,151.3351,NSW ,
Balanundurup,-33.80222,117.2714,WA ,
Balbanup,-34.11129,116.6651,WA ,
Balbarrup,-34.19417,116.2822,WA ,
Balbarrup,-34.21186,116.2012,WA ,
Balbarrup,-34.22917,116.2017,WA ,
Balcatta,-31.87628,115.8173,WA ,
Balcolyn,-33.0947,151.552,NSW ,
Balcombe,-38.2583313,145.0225067,AHO ,
Bald Blair,-30.1734,151.8156,NSW ,
Bald Hills,-30.3485,152.4512,NSW ,
Bald Hills,-33.0318,149.4179,NSW ,
Bald Hills,-35.48737,138.40205,SA ,
Bald Hills,-36.9068,149.8346,NSW ,
Bald Knob,-30.2485,152.9846,NSW ,
Bald Nob,-29.6318,151.9679,NSW ,
Bald Ridge,-33.9318,149.4346,NSW ,
Baldersleigh,-30.2555,151.426,NSW ,
