Location,Lat,Lon,LocationURL
Wauchope NSW,-31.45,152.733333,
Mooloolah Valley,-26.763611,152.9675,
Queanbeyan,-35.353333,149.234167,
Scone,-32.083333,150.85,
Jindabyne,-36.418,148.6231,
Palmwoods QLD,-26.6874,152.9603,
Toowoomba QLD,-27.5622,151.9528,
Alstonville NSW,-28.8421,153.4405,
Yeppoon QLD,-23.1281,150.7445,
Durack WA,-16.246,127.478,
Cunnamulla,-28.069,145.683,
Bicheno TAS,-41.875,148.304,
Blaxland,-33.744,150.61,
Darwin,-12.45,130.8333,